{
   "status":"OK",
   "num_results":61,
   "results":[
      {
         "sapId":"40005059",
         "title":"Elektro Zelenka",
         "latlng":"49.298327,14.471068",
         "region":"jihocesky",
         "openingHours":"Po-Pá: 8-12h,13-17:30h, So: 8-11:30h, Ne: zavřeno",
         "streetWithNumber":"Libušina 171 (vedle kina)",
         "shopType":"ostatní",
         "city":"Bechyně",
         "zip":"391 65",
         "url":"/booking-form/_content_shops_x40005059-elektro-zelenka.html",
         "phone":"381212888",
         "email":"obchod@elektrobechyne.cz"
      },
      {
         "sapId":"40000004",
         "title":"PLANEO Benešov s.r.o.",
         "latlng":"49.781274,14.687060",
         "region":"stredocesky",
         "openingHours":"Po-Pá: 8:30-17:30h, So: 8:30-11:30h, Ne: zavřeno",
         "streetWithNumber":"Husova 2117 (u Komerční banky)",
         "shopType":"ostatní",
         "city":"Benešov",
         "zip":"256 01",
         "url":"/booking-form/_content_shops_x40000004-planeo-benesov-s-r-o.html",
         "phone":"317729481",
         "email":"benesov@planeo.cz"
      },
      {
         "sapId":"1140",
         "title":"PLANEO Elektro Beroun",
         "latlng":"49.951566,14.042946",
         "region":"stredocesky",
         "openingHours":"Po-Pá: 9-20h, So: 9-20h, Ne: 9-20h",
         "streetWithNumber":"Plzeňská 474 (u OBI)",
         "shopType":"planeo",
         "city":"Beroun",
         "zip":"266 01",
         "url":"/booking-form/_content_shops_x1140-planeo-elektro-beroun.html",
         "phone":"313033121, 734236987",
         "email":"beroun@planeo.cz"
      },
      {
         "sapId":"40006393",
         "title":"Elektro Karásek",
         "latlng":"50.549850,13.775247",
         "region":"ustecky",
         "openingHours":"Po-Pá: 8-12h,14-17h, So: zavřeno, Ne: zavřeno",
         "streetWithNumber":"Želivského 65",
         "shopType":"ostatní",
         "city":"Bílina",
         "zip":"418 01",
         "url":"/booking-form/_content_shops_x40006393-elektro-karasek.html",
         "phone":"417823026",
         "email":"jarkarasek@volny.cz"
      },
      {
         "sapId":"40025851",
         "title":"3D Elektro s.r.o.",
         "latlng":"49.361841,16.642552",
         "region":"jihomoravsky",
         "openingHours":"Po-Pá: 9-17:30h, So: 9-12h, Ne: zavřeno",
         "streetWithNumber":"Rožmitálova 16",
         "shopType":"ostatní",
         "city":"Blansko",
         "zip":"678 01",
         "url":"/booking-form/_content_shops_x40025851-3d-elektro-s-r-o.html",
         "phone":"778070750 ,731174224",
         "email":"info@3D-Elektro.cz"
      },
      {
         "sapId":"40020400",
         "title":"ESAM - Eva Skřižovská",
         "latlng":"49.901930,18.357411",
         "region":"moravskoslezsky",
         "openingHours":"Po-Pá: 8-18h, So: 8-12h, Ne: zavřeno",
         "streetWithNumber":"Studentská 182",
         "shopType":"ostatní",
         "city":"Bohumín",
         "zip":"735 81",
         "url":"/booking-form/_content_shops_x40020400-esam-eva-skrizovska.html",
         "phone":"596012672",
         "email":"esam@esam.cz"
      },
      {
         "sapId":"40011821",
         "title":"Klíma Oldřich THERMITRON",
         "latlng":"49.903535,18.353775",
         "region":"moravskoslezsky",
         "openingHours":"Po-Pá: 9-17h, So: 9-12h, Ne: zavřeno",
         "streetWithNumber":"Třída Dr. E. Beneše 852",
         "shopType":"ostatní",
         "city":"Bohumín",
         "zip":"735 81",
         "url":"/booking-form/_content_shops_x40011821-klima-oldrich-thermitron.html",
         "phone":"596012409",
         "email":"thermitron@thermitron.cz"
      },
      {
         "sapId":"40020811",
         "title":"Eurohity s.r.o.",
         "latlng":"49.037611,17.812791",
         "region":"zlinsky",
         "openingHours":"Po-Pá: 8-12h, 13-17h, So: 8-11h, Ne: zavřeno",
         "streetWithNumber":"Sušilova 23 (OD TES)",
         "shopType":"ostatní",
         "city":"Bojkovice",
         "zip":"687 71",
         "url":"/booking-form/_content_shops_x40020811-eurohity-s-r-o.html",
         "phone":"572643184",
         "email":"bojkovice@eurohity.cz"
      },
      {
         "sapId":"40009242",
         "title":"Elektra Vladimír Ryšávka",
         "latlng":"49.487967,16.659147",
         "region":"jihomoravsky",
         "openingHours":"Po-Pá: 8-12h, 13:30-17h, So: 8-11h, Ne: zavřeno",
         "streetWithNumber":"Masarykovo náměstí 24/23",
         "shopType":"ostatní",
         "city":"Boskovice",
         "zip":"680 01",
         "url":"/booking-form/_content_shops_x40009242-elektra-vladimir-rysavka.html",
         "phone":"516452179",
         "email":"elektra@topnet.cz"
      },
      {
         "sapId":"1168",
         "title":"PLANEO Elektro Brandýs nad Labem",
         "latlng":"50.175456,14.670809",
         "region":"stredocesky",
         "openingHours":"Po-Pá: 9-20h, So: 9-20h, Ne: 9-20h",
         "streetWithNumber":"Zápy (u Tesca)",
         "shopType":"planeo",
         "city":"Brandýs nad Labem",
         "zip":"250 01",
         "url":"/booking-form/_content_shops_x1168-planeo-elektro-brandys-nad-labem.html",
         "phone":"313035139, 735726984",
         "email":"brandys@planeo.cz"
      },
      {
         "sapId":"1135",
         "title":"PLANEO Elektro Brno",
         "latlng":"49.177492,16.566093",
         "region":"jihomoravsky",
         "openingHours":"Po-Pá: 9-20h, So: 9-20h, Ne: 9-20h",
         "streetWithNumber":"Netroufalky 770 (Campus Square)",
         "shopType":"planeo",
         "city":"Brno",
         "zip":"625 00",
         "stampReason":"Test",
         "stampNote":"Test razítka",
         "stampFrom":"1.1.2019 0:00",
         "stampTo":"7.3.2019 0:00",
         "url":"/booking-form/_content_shops_x1135-planeo-elektro-brno.html",
         "phone":"547213970, 603855006",
         "email":"brno@planeo.cz"
      },
      {
         "sapId":"1111",
         "title":"PLANEO Elektro Brno",
         "latlng":"49.173967,16.582027",
         "region":"jihomoravsky",
         "openingHours":"Po-Pá: 8-20h, So: 8-20h, Ne: 8-20h",
         "streetWithNumber":"Kamenice 745 (Kaufland)",
         "shopType":"planeo",
         "city":"Brno",
         "zip":"625 00",
         "url":"/booking-form/_content_shops_x1111-planeo-elektro-brno.html",
         "phone":"547351394, 602174721",
         "email":"brnoodk@planeo.cz"
      },
      {
         "sapId":"40004836",
         "title":"Servis Černý, s.r.o.",
         "latlng":"50.585189,16.331950",
         "region":"kralovehradecky",
         "openingHours":"Po-Pá: 8-17h, So: 8-11h, Ne: zavřeno",
         "streetWithNumber":"Mírové náměstí 99",
         "shopType":"ostatní",
         "city":"Broumov",
         "zip":"550 01",
         "url":"/booking-form/_content_shops_x40004836-servis-cerny-s-r-o.html",
         "phone":"491522881",
         "email":"elektra.99@servis-cerny.cz"
      },
      {
         "sapId":"30017730",
         "title":"Eurohity s.r.o.",
         "latlng":"49.088882,18.023859",
         "region":"zlinsky",
         "openingHours":"Po-Pá: 8-12h, 13-17h, So: 8-11h, Ne: zavřeno",
         "streetWithNumber":"1.května 1034",
         "shopType":"ostatní",
         "city":"Brumov",
         "zip":"763 31",
         "url":"/booking-form/_content_shops_x30017730-eurohity-s-r-o.html",
         "phone":"604260924",
         "email":"info@eurohity.cz"
      },
      {
         "sapId":"1169",
         "title":"PLANEO Elektro Bruntál",
         "latlng":"49.981476,17.463430",
         "region":"moravskoslezsky",
         "openingHours":"Po-Pá: 9-20h, So: 9-20h, Ne: 9-20h",
         "streetWithNumber":"tř. Práce 2024/1a",
         "shopType":"planeo",
         "city":"Bruntál",
         "zip":"792 01",
         "url":"/booking-form/_content_shops_x1169-planeo-elektro-bruntal.html",
         "phone":"553034190, 730815786",
         "email":"bruntal@planeo.cz"
      },
      {
         "sapId":"40030117",
         "title":"Makayová Jitka",
         "latlng":"49.988727,17.466161",
         "region":"moravskoslezsky",
         "openingHours":"Po- Pá 8:00- 17:00, So  8:00- 11:00, Ne:zavřeno",
         "streetWithNumber":"Jesenická 43",
         "shopType":"ostatní",
         "city":"Bruntál",
         "zip":"792 01",
         "url":"/booking-form/_content_shops_x40030117-makayova-jitka.html",
         "phone":"554716579",
         "email":"gigant@email.cz"
      },
      {
         "sapId":"40005279",
         "title":"KLS ELEKTRO",
         "latlng":"48.760417,16.880794",
         "region":"jihomoravsky",
         "openingHours":"Po-Pá: 9-17h, So: 9-12h, Ne: zavřeno",
         "streetWithNumber":"Národních hrdinů 12B",
         "shopType":"ostatní",
         "city":"Břeclav",
         "zip":"690 02",
         "url":"/booking-form/_content_shops_x40005279-kls-elektro.html",
         "phone":"519326117",
         "email":"klselektro@seznam.cz"
      },
      {
         "sapId":"30033451",
         "title":"MEDO Elektro",
         "latlng":"48.753231,16.869343",
         "region":"jihomoravsky",
         "openingHours":"Po-Pá: 9-12h, 12:30-17:30h, So: 9-12h, Ne: zavřeno",
         "streetWithNumber":"J.Fučíka 4",
         "shopType":"ostatní",
         "city":"Břeclav",
         "zip":"691 41",
         "url":"/booking-form/_content_shops_x30033451-medo-elektro.html",
         "phone":"519321214",
         "email":"medoelektro@tiscali.cz"
      },
      {
         "sapId":"1141",
         "title":"PLANEO Elektro Břeclav",
         "latlng":"48.780464,16.902510",
         "region":"jihomoravsky",
         "openingHours":"Po-Pá: 9-20h, So: 9-20h, Ne: 9-20h",
         "streetWithNumber":"Lidická (u Tesca)",
         "shopType":"planeo",
         "city":"Břeclav",
         "zip":"690 02",
         "url":"/booking-form/_content_shops_x1141-planeo-elektro-breclav.html",
         "phone":"513033550, 734186272",
         "email":"breclav@planeo.cz"
      },
      {
         "sapId":"40020265",
         "title":"Vladimír Žampach - ELMONT",
         "latlng":"49.399970,17.669557",
         "region":"zlinsky",
         "openingHours":"Po-Pá: 8-17h, So: 8-11h, Ne: zavřeno",
         "streetWithNumber":"Dolní 1651",
         "shopType":"ostatní",
         "city":"Bystřice pod Hostýnem",
         "zip":"768 61",
         "url":"/booking-form/_content_shops_x40020265-vladimir-zampach-elmont.html",
         "phone":"573382001",
         "email":"elmont.sp@quick.cz"
      },
      {
         "sapId":"40014661",
         "title":"KVART.sro",
         "latlng":"48.972169,17.268187",
         "region":"jihomoravsky",
         "openingHours":"Po-Pá: 8-17h, So: 8-11h, Ne: zavřeno",
         "streetWithNumber":"náměstí Svobody 312",
         "shopType":"ostatní",
         "city":"Bzenec",
         "zip":"696 81",
         "url":"/booking-form/_content_shops_x40014661-kvart-sro.html",
         "phone":"518384510, 774555496",
         "email":"bzenec@elektro-kvart.cz"
      },
      {
         "sapId":"40006587",
         "title":"Termocentrum",
         "latlng":"49.910687,15.394999",
         "region":"stredocesky",
         "openingHours":"Po-Pá: 7-17h, So: 8-12h, Ne: zavřeno",
         "streetWithNumber":"Masarykova 354 (naproti Bille)",
         "shopType":"ostatní",
         "city":"Čáslav",
         "zip":"286 01",
         "url":"/booking-form/_content_shops_x40006587-termocentrum.html",
         "phone":"327316535",
         "email":"caslav@termocentrum.cz"
      },
      {
         "sapId":"40002172",
         "title":"Elektro Borecký",
         "latlng":"50.160075,14.753866",
         "region":"stredocesky",
         "openingHours":"Po-Pá: 8:30-17:30h, So: 8-12h, Ne: zavřeno",
         "streetWithNumber":"Masarykova 234",
         "shopType":"ostatní",
         "city":"Čelákovice",
         "zip":"250 88",
         "url":"/booking-form/_content_shops_x40002172-elektro-borecky.html",
         "phone":"326991512",
         "email":"bom@volny.cz"
      },
      {
         "sapId":"40005624",
         "title":"Juránek Milan Chladírenský servis",
         "latlng":"50.476263,16.092587",
         "region":"kralovehradecky",
         "openingHours":"Po-Pá: 8-12h, 12:30-17h, So: 8-11h, Ne: zavřeno",
         "streetWithNumber":"náměstí T. G. Masaryka 23",
         "shopType":"ostatní",
         "city":"Červený Kostelec",
         "zip":"549 41",
         "url":"/booking-form/_content_shops_x40005624-juranek-milan-chladirensky.html",
         "phone":"491461276",
         "email":"juranek.elektro@seznam.cz"
      },
      {
         "sapId":"1165",
         "title":"PLANEO Elektro Česká Lípa",
         "latlng":"50.699811,14.542725",
         "region":"liberecky",
         "openingHours":"Po-Pá: 9-19h, So: 9-19h, Ne: 9-19h",
         "streetWithNumber":"Borská ulice 3290 (OC Borská)",
         "shopType":"planeo",
         "city":"Česká Lípa",
         "zip":"470 01",
         "url":"/booking-form/_content_shops_x1165-planeo-elektro-ceska-lipa.html",
         "phone":"605231329, 605231330",
         "email":"ceskalipa@planeo.cz"
      },
      {
         "sapId":"1114",
         "title":"PLANEO Elektro Česká Třebová",
         "latlng":"49.911451,16.438406",
         "region":"pardubicky",
         "openingHours":"Po-Pá: 9-20h, So: 9-20h, Ne: 9-20h",
         "streetWithNumber":"Dr. E. Beneše 643 (u OD Tesco)",
         "shopType":"planeo",
         "city":"Česká Třebová",
         "zip":"560 02",
         "url":"/booking-form/_content_shops_x1114-planeo-elektro-ceska-trebova.html",
         "phone":"465321748, 724316800",
         "email":"ceskatrebova@planeo.cz"
      },
      {
         "sapId":"1161",
         "title":"PLANEO Elektro České Budějovice",
         "latlng":"49.004639,14.449074",
         "region":"jihocesky",
         "openingHours":"Po-Pá: 9-20h, So: 9-20h, Ne: 9-20h",
         "streetWithNumber":"České Vrbné 2392 (u Bauhausu)",
         "shopType":"planeo",
         "city":"České Budějovice",
         "zip":"370 11",
         "url":"/booking-form/_content_shops_x1161-planeo-elektro-ceske-budejovice.html",
         "phone":"383134061, 739380330",
         "email":"ceskebudejovice@planeo.cz"
      },
      {
         "sapId":"30020995",
         "title":"DM Elektro \"U Heřtusů\"",
         "latlng":"50.074623,14.861265",
         "region":"stredocesky",
         "openingHours":"Po-Pá: 8-17h, So: 8-11:30h, Ne: zavřeno",
         "streetWithNumber":"Krále Jiřího 20",
         "shopType":"ostatní",
         "city":"Český Brod",
         "zip":"282 01",
         "url":"/booking-form/_content_shops_x30020995-dm-elektro-u-hertusu.html",
         "phone":"774404184",
         "email":"obchod@dmelektro.cz"
      },
      {
         "sapId":"40023657",
         "title":"Elektrocentrum - EAT",
         "latlng":"48.806069,14.312148",
         "region":"jihocesky",
         "openingHours":"Po-Pá: 8.30-12h , 12.45-17.30h , So: 8.30-11.30h, Ne: zavřeno",
         "streetWithNumber":"Plešivecká 136",
         "shopType":"ostatní",
         "city":"Český Krumlov",
         "zip":"381 01",
         "url":"/booking-form/_content_shops_x40023657-elektrocentrum-eat.html",
         "phone":"731521509, 380726606",
         "email":"eatshop@seznam.cz"
      },
      {
         "sapId":"1128",
         "title":"PLANEO Elektro Český Těšín",
         "latlng":"49.739767,18.619639",
         "region":"moravskoslezsky",
         "openingHours":"Po-Pá: 9-19h, So: 9-19h, Ne: 9-19h",
         "streetWithNumber":"Jablůnkovská 2050/36 (u Tesca)",
         "shopType":"planeo",
         "city":"Český Těšín",
         "zip":"737 01",
         "url":"/booking-form/_content_shops_x1128-planeo-elektro-cesky-tesin.html",
         "phone":"597602120, 603855004",
         "email":"ceskytesin@planeo.cz"
      },
      {
         "sapId":"40027188",
         "title":"Exasoft",
         "latlng":"49.744352,18.623717",
         "region":"moravskoslezsky",
         "openingHours":"Po-Pá: 9-18h, So: 9-12h, Ne: zavřeno",
         "streetWithNumber":"Bezručova 38",
         "shopType":"ostatní",
         "city":"Český Těšín",
         "zip":"737 01",
         "url":"/booking-form/_content_shops_x40027188-exasoft.html",
         "phone":"777064488",
         "email":"tesin@exasoft.cz"
      },
      {
         "sapId":"40000238",
         "title":"ELEKTRO - Bubeník",
         "latlng":"49.085804,15.436306",
         "region":"jihocesky",
         "openingHours":"Po-Pá: 8-17h, So: 8-12h, Ne: zavřeno",
         "streetWithNumber":"9. Května 18",
         "shopType":"ostatní",
         "city":"Dačice",
         "zip":"380 01",
         "url":"/booking-form/_content_shops_x40000238-elektro-bubenik.html",
         "phone":"384420028",
         "email":"info@elektro-bubenik.cz"
      },
      {
         "sapId":"1112",
         "title":"PLANEO Elektro Děčín",
         "latlng":"50.770097,14.208284",
         "region":"ustecky",
         "openingHours":"Po-Pá: 8-19h, So: 8-19h, Ne: 8-19h",
         "streetWithNumber":"Ústecká 1975/12 (u Tesca)",
         "shopType":"planeo",
         "city":"Děčín",
         "zip":"405 02",
         "url":"/booking-form/_content_shops_x1112-planeo-elektro-decin.html",
         "phone":"412511871, 603882802",
         "email":"decin@planeo.cz"
      },
      {
         "sapId":"30006977",
         "title":"Elektro Roman Volák",
         "latlng":"49.894457,18.464474",
         "region":"moravskoslezsky",
         "openingHours":"Po-Pá: 8-18h, So: 8-13h, Ne: zavřeno",
         "streetWithNumber":"Dětmarovice 25",
         "shopType":"ostatní",
         "city":"Dětmarovice",
         "zip":"735 71",
         "url":"/booking-form/_content_shops_x30006977-elektro-roman-volak.html",
         "phone":"596781117",
         "email":"obchod@volak.net"
      },
      {
         "sapId":"40005194",
         "title":"Bytmex Nábytek-Elektro",
         "latlng":"49.780802,14.168945",
         "region":"stredocesky",
         "openingHours":"Po-Pá: 8-17h, So: 8-12h, Ne: zavřeno",
         "streetWithNumber":"Mírové náměstí 44",
         "shopType":"ostatní",
         "city":"Dobříš",
         "zip":"263 01",
         "url":"/booking-form/_content_shops_x40005194-bytmex-nabytek-elektro.html",
         "phone":"318523577",
         "email":"bytmex@volny.cz"
      },
      {
         "sapId":"40002559",
         "title":"MARACO s.r.o.",
         "latlng":"49.780733,14.172019",
         "region":"stredocesky",
         "openingHours":"Po-Pá: 7:45-17h, So: 8:30-11:30h, Ne: zavřeno",
         "streetWithNumber":"Komenského nám. 417",
         "shopType":"ostatní",
         "city":"Dobříš",
         "zip":"263 01",
         "url":"/booking-form/_content_shops_x40002559-maraco-s-r-o.html",
         "phone":"603 496 870, 318522701",
         "email":"maraco@maraco.cz"
      },
      {
         "sapId":"40022422",
         "title":"Elektro Muller",
         "latlng":"49.919173,18.117676",
         "region":"moravskoslezsky",
         "openingHours":"Po-Pá: 9-12h, 14-17h, So: 9-11:30h, Ne: zavřeno",
         "streetWithNumber":"Hlučínská 352",
         "shopType":"ostatní",
         "city":"Dolní Benešov",
         "zip":"747 22",
         "url":"/booking-form/_content_shops_x40022422-elektro-muller.html",
         "phone":"553651284",
         "email":"elektromuller@volny.cz"
      },
      {
         "sapId":"30008920",
         "title":"KVART.sro",
         "latlng":"48.861052,17.026386",
         "region":"jihomoravsky",
         "openingHours":"Po-Pá: 8-17h, So: 8-11h, Ne: zavřeno",
         "streetWithNumber":"Hlavní 187",
         "shopType":"ostatní",
         "city":"Dolní Bojanovice",
         "zip":"696 17",
         "url":"/booking-form/_content_shops_x30008920-kvart-sro.html",
         "phone":"518372246, 775555225",
         "email":"info@elektro-kvart.cz"
      },
      {
         "sapId":"40002797",
         "title":"TV PLUS ELEKTRON",
         "latlng":"49.441273,12.925903",
         "region":"plzensky",
         "openingHours":"Po-Pá: 8:30-17:30h, So: 8:30-12h, Ne: zavřeno",
         "streetWithNumber":"Benešova 639 (u Komerční banky)",
         "shopType":"ostatní",
         "city":"Domažlice",
         "zip":"344 01",
         "url":"/booking-form/_content_shops_x40002797-tv-plus-elektron.html",
         "phone":"379725546",
         "email":"elektron.do@iol.cz"
      },
      {
         "sapId":"40006851",
         "title":"Elektro Kubeš Zdeněk",
         "latlng":"48.918254,17.099490",
         "region":"jihomoravsky",
         "openingHours":"Po-Pá: 9-17h, So: 9-12h, Ne: zavřeno",
         "streetWithNumber":"Hodonínská 99",
         "shopType":"ostatní",
         "city":"Dubňany",
         "zip":"696 03",
         "url":"/booking-form/_content_shops_x40006851-elektro-kubes-zdenek.html",
         "phone":"518366287",
         "email":"elkubes@seznam.cz"
      },
      {
         "sapId":"40032241",
         "title":"Elektro Karásek",
         "latlng":"50.602407,13.746679",
         "region":"ustecky",
         "openingHours":"Po-Pá: 9-12h,13-17h, So: zavřeno, Ne: zavřeno",
         "streetWithNumber":"nám. Republiky 48",
         "shopType":"ostatní",
         "city":"Duchcov",
         "zip":"419 01",
         "url":"/booking-form/_content_shops_x40032241-elektro-karasek.html",
         "phone":"417835998",
         "email":"el.duchcov@centrum.cz"
      },
      {
         "sapId":"40005193",
         "title":"SEEL elektro",
         "latlng":"50.431450,15.814695",
         "region":"kralovehradecky",
         "openingHours":"Po-Pá: 8-17h, So: 8-11h, Ne: zavřeno",
         "streetWithNumber":"nám. T. G. Masaryka 40",
         "shopType":"ostatní",
         "city":"Dvůr Králové nad Labem",
         "zip":"544 01",
         "url":"/booking-form/_content_shops_x40005193-seel-elektro.html",
         "phone":"499320887",
         "email":"seel.dk@worldonline"
      },
      {
         "sapId":"30008053",
         "title":"Tomáš Zvoník, TT Elektro",
         "latlng":"49.531207,18.221344",
         "region":"moravskoslezsky",
         "openingHours":"Po-Pá: 8-12h,14-17h, So: zavřeno, Ne: zavřeno",
         "streetWithNumber":"Helštýn 1110",
         "shopType":"ostatní",
         "city":"Frenštát pod Radhoštěm",
         "zip":"744 01",
         "url":"/booking-form/_content_shops_x30008053-tomas-zvonik-tt-elektro.html",
         "phone":"556835420",
         "email":"tzvonik@seznam.cz"
      },
      {
         "sapId":"1150",
         "title":"PLANEO Elektro Frýdek-Místek",
         "latlng":"49.677542,18.369397",
         "region":"moravskoslezsky",
         "openingHours":"Po-Pá: 9-20h, So: 9-20h, Ne: 9-20h",
         "streetWithNumber":"Hlavní třída 3274 (u Alberta)",
         "shopType":"planeo",
         "city":"Frýdek-Místek",
         "zip":"738 01",
         "url":"/booking-form/_content_shops_x1150-planeo-elektro-frydek-mistek.html",
         "phone":"593033024, 604291241",
         "email":"frydekmistek@planeo.cz"
      },
      {
         "sapId":"40000967",
         "title":"P a P Elektro",
         "latlng":"50.921957,15.075319",
         "region":"liberecky",
         "openingHours":"Po-Pá: 8:30-17:00h, So: 8:30-11:30h, Ne: zavřeno",
         "streetWithNumber":"Míru 682",
         "shopType":"ostatní",
         "city":"Frýdlant v Čechách",
         "zip":"464 01",
         "url":"/booking-form/_content_shops_x40000967-p-a-p-elektro.html",
         "phone":"482312410, 608065002",
         "email":"obchod-palme.elektro@wo.cz"
      },
      {
         "sapId":"40009115",
         "title":"Televizní služba NOVA - Jan Svoboda",
         "latlng":"49.844718,18.281649",
         "region":"moravskoslezsky",
         "openingHours":"po-pá 8-17.30, so 8-11 hod, Ne zavřeno",
         "streetWithNumber":"Lipová 382",
         "shopType":"ostatní",
         "city":"Hať u Hlučína",
         "zip":"747 16",
         "url":"/booking-form/_content_shops_x40009115-televizni-sluzba-nova-jan.html",
         "phone":"595 056 035 720 546 156",
         "email":"elektro@tsnova.cz"
      },
      {
         "sapId":"1171",
         "title":"PLANEO Elektro Havířov",
         "latlng":"49.769855,18.448247",
         "region":"moravskoslezsky",
         "openingHours":"Po-Pá: 9-20h, So: 9-20h, Ne: 9-20h",
         "streetWithNumber":"U Stadionu 1655/8a (u zimního stadionu)",
         "shopType":"planeo",
         "city":"Havířov",
         "zip":"736 01",
         "url":"/booking-form/_content_shops_x1171-planeo-elektro-havirov.html",
         "phone":"593033004, 735700189",
         "email":"havirov@planeo.cz"
      },
      {
         "sapId":"40031761",
         "title":"ESAM - Eva Skřižovská",
         "latlng":"49.800890,18.420944",
         "region":"moravskoslezsky",
         "openingHours":"Po-Pá: 8-18h, So: 8-12h, Ne: zavřeno",
         "streetWithNumber":"Gen.Svobody 268/17",
         "shopType":"ostatní",
         "city":"Havířov",
         "zip":"736 01",
         "url":"/booking-form/_content_shops_x40031761-esam-eva-skrizovska.html",
         "phone":"596881081",
         "email":"esam@esam.cz"
      },
      {
         "sapId":"30020718",
         "title":"Exasoft",
         "latlng":"49.775442,18.449891",
         "region":"moravskoslezsky",
         "openingHours":"Po-Pá: 9-18h, So: 9-12h, Ne: zavřeno",
         "streetWithNumber":"Dlouhá třída 1226/44",
         "shopType":"ostatní",
         "city":"Havířov",
         "zip":"736 01",
         "url":"/booking-form/_content_shops_x30020718-exasoft.html",
         "phone":"773362010",
         "email":"havirov@exasoft.cz"
      },
      {
         "sapId":"40001136",
         "title":"VIKI spol. s r.o.",
         "latlng":"49.607981,15.578597",
         "region":"vysocina",
         "openingHours":"Po-Pá: 8-12h, 12:30-17h, So: zavřeno, Ne: zavřeno",
         "streetWithNumber":"Horní 12",
         "shopType":"ostatní",
         "city":"Havlíčkův Brod",
         "zip":"580 01",
         "url":"/booking-form/_content_shops_x40001136-viki-spol-s-r-o.html",
         "phone":"569431050",
         "email":"viki.hb@viki.sro.cz"
      },
      {
         "sapId":"40003961",
         "title":"ELVO Hlinsko, s.r.o.",
         "latlng":"49.762384,15.907574",
         "region":"pardubicky",
         "openingHours":"Po-Pá: 8-12h, 13-17h, So: 8-11h, Ne: zavřeno",
         "streetWithNumber":"Komenského 408",
         "shopType":"ostatní",
         "city":"Hlinsko",
         "zip":"539 01",
         "url":"/booking-form/_content_shops_x40003961-elvo-hlinsko-s-r-o.html",
         "phone":"461100150",
         "email":"obchod@elvo-hlinsko.cz"
      },
      {
         "sapId":"40022423",
         "title":"Prodejna MOBILÁRIUM",
         "latlng":"49.896788,18.188387",
         "region":"moravskoslezsky",
         "openingHours":"Po-Pá:8-17, So: 9-11:30h, Ne:zavřeno",
         "streetWithNumber":"Ostravská 2",
         "shopType":"ostatní",
         "city":"Hlučín",
         "zip":"748 01",
         "url":"/booking-form/_content_shops_x40022423-prodejna-mobilarium.html",
         "phone":"595030999",
         "email":"mobilarium@volny.cz"
      },
      {
         "sapId":"40008307",
         "title":"Elektro & Speciál",
         "latlng":"49.894208,18.190723",
         "region":"moravskoslezsky",
         "openingHours":"Po-Pá:8:30-17, So:8:30-11:30, Ne:zavřeno",
         "streetWithNumber":"Písečná 14A",
         "shopType":"ostatní",
         "city":"Hlučín",
         "zip":"748 01",
         "url":"/booking-form/_content_shops_x40008307-elektro-special.html",
         "phone":"595042904",
         "email":"grundig@volny.cz"
      },
      {
         "sapId":"40026835",
         "title":"Sečkář - Kostelanský SK Elektro",
         "latlng":"48.987758,17.528914",
         "region":"zlinsky",
         "openingHours":"Po-Pá: 8:30-16:30h, So: 9-11h, Ne: zavřeno",
         "streetWithNumber":"nám. Komenského 57",
         "shopType":"ostatní",
         "city":"Hluk",
         "zip":"687 25",
         "url":"/booking-form/_content_shops_x40026835-seckar-kostelansky-sk-elektro.html",
         "phone":"608438969",
         "email":"skelektro@seznam.cz"
      },
      {
         "sapId":"40010296",
         "title":"Elektrocentrum Karhan",
         "latlng":"49.325940,17.561491",
         "region":"zlinsky",
         "openingHours":"Po-Pá: 9-17h, So: 9-12h, Ne: zavřeno",
         "streetWithNumber":"Palackého 519",
         "shopType":"ostatní",
         "city":"Holešov",
         "zip":"769 01",
         "url":"/booking-form/_content_shops_x40010296-elektrocentrum-karhan.html",
         "phone":"573396365",
         "email":"obchod@karhan.cz"
      },
      {
         "sapId":"40024426",
         "title":"Elektrocentrum - EAT",
         "latlng":"48.806069,14.312146",
         "region":"jihocesky",
         "openingHours":"Po-Pá: 8-12h, 13-17h, So: 8-11h, Ne: zavřeno",
         "streetWithNumber":"Náměstí 48",
         "shopType":"ostatní",
         "city":"Horní Planá",
         "zip":"382 26",
         "url":"/booking-form/_content_shops_x40024426-elektrocentrum-eat.html",
         "phone":"731521451",
         "email":"eat@seznam.cz"
      },
      {
         "sapId":"40007246",
         "title":"Terek Elektro",
         "latlng":"50.137721,12.800837",
         "region":"karlovarsky",
         "openingHours":"Po-Pá: 9-17h, So: 9-11h, Ne: zavřeno",
         "streetWithNumber":"Dlouhá 635",
         "shopType":"ostatní",
         "city":"Horní Slavkov",
         "zip":"357 31",
         "url":"/booking-form/_content_shops_x40007246-terek-elektro.html",
         "phone":"775347445",
         "email":"352688262@iol.cz"
      },
      {
         "sapId":"40023666",
         "title":"SEEL elektro",
         "latlng":"50.365354,15.629940",
         "region":"kralovehradecky",
         "openingHours":"Po-Pá: 9-17h, So: 8,30-11h, Ne: zavřeno",
         "streetWithNumber":"Aloise Hlavatého 2208",
         "shopType":"ostatní",
         "city":"Hořice",
         "zip":"508 01",
         "url":"/booking-form/_content_shops_x40023666-seel-elektro.html",
         "phone":"499320888",
         "email":"planeo@seel.cz"
      },
      {
         "sapId":"40025347",
         "title":"Elmont-ch Elektro",
         "latlng":"50.541807,15.722056",
         "region":"kralovehradecky",
         "openingHours":"Po-Pá: 9-17h, So: 9-11:30h, Ne: zavřeno",
         "streetWithNumber":"E. Votočka 8",
         "shopType":"ostatní",
         "city":"Hostinné",
         "zip":"543 71",
         "url":"/booking-form/_content_shops_x40025347-elmont-ch-elektro.html",
         "phone":"739106672",
         "email":"elektroplaneo@centrum.cz"
      },
      {
         "sapId":"1163",
         "title":"PLANEO Elektro Hradec Králové",
         "latlng":"50.218079,15.832096",
         "region":"kralovehradecky",
         "openingHours":"Po-Pá: 9-20h, So: 9-20h, Ne: 9-20h",
         "streetWithNumber":"Pilnáčkova 537 (u OBI)",
         "shopType":"planeo",
         "city":"Hradec Králové",
         "zip":"500 02",
         "url":"/booking-form/_content_shops_x1163-planeo-elektro-hradec-kralove.html",
         "phone":"493034049, 739686719",
         "email":"hradeckralove@planeo.cz"
      },
      {
         "sapId":"40006368",
         "title":"Špacír Elektro",
         "latlng":"49.873875,17.876474",
         "region":"moravskoslezsky",
         "openingHours":"Po-Pá: 8:30-17h, So: 8:30-11h, Ne: zavřeno",
         "streetWithNumber":"Opavská 143",
         "shopType":"ostatní",
         "city":"Hradec nad Moravicí",
         "zip":"747 41",
         "url":"/booking-form/_content_shops_x40006368-spacir-elektro.html",
         "phone":"553784216",
         "email":"spacirelektro@atlas.cz"
      },
      {
         "sapId":"1131",
         "title":"PLANEO Elektro Hranice",
         "latlng":"49.557974,17.742581",
         "region":"olomoucky",
         "openingHours":"Po-Pá: 9-20h, So: 9-20h, Ne: 9-20h",
         "streetWithNumber":"Družstevní 2072, (nad Kauflandem, OC STOP SHOP)",
         "shopType":"planeo",
         "city":"Hranice",
         "zip":"753 01",
         "url":"/booking-form/_content_shops_x1131-planeo-elektro-hranice.html",
         "phone":"581601319, 724532478",
         "email":"hranice@planeo.cz"
      },
      {
         "sapId":"40026843",
         "title":"Elektro Lumis",
         "latlng":"48.830345,16.401233",
         "region":"jihomoravsky",
         "openingHours":"Po-Pá: 8-17h, So: 8-11h, Ne: zavřeno",
         "streetWithNumber":"Náměstí Míru 28",
         "shopType":"ostatní",
         "city":"Hrušovany nad Jevišovkou",
         "zip":"671 67",
         "url":"/booking-form/_content_shops_x40026843-elektro-lumis.html",
         "phone":"774742433",
         "email":"lumis-elektro@seznam.cz"
      },
      {
         "sapId":"40026282",
         "title":"Chmelař Jiří - LIBOLI s.r.o.",
         "latlng":"49.539861,15.355343",
         "region":"vysocina",
         "openingHours":"Po-Pá: 8-17:30h, So: 8-11h, Ne: zavřeno",
         "streetWithNumber":"Školní 158",
         "shopType":"ostatní",
         "city":"Humpolec",
         "zip":"396 01",
         "url":"/booking-form/_content_shops_x40026282-chmelar-jiri-liboli-s-r-o.html",
         "phone":"565532156",
         "email":"prodej@elektrochmelar.com"
      },
      {
         "sapId":"40004426",
         "title":"Elektro Vácha",
         "latlng":"49.046363,13.844072",
         "region":"jihocesky",
         "openingHours":"Po-Pá: 7-17h, So: 8-11h, Ne: zavřeno",
         "streetWithNumber":"Buk 51",
         "shopType":"ostatní",
         "city":"Husinec",
         "zip":"384 21",
         "url":"/booking-form/_content_shops_x40004426-elektro-vacha.html",
         "phone":"388412955",
         "email":"obchod@elektrovacha.cz"
      },
      {
         "sapId":"40010159",
         "title":"ELEKTRO-TEAM s.r.o",
         "latlng":"48.940163,16.738203",
         "region":"jihomoravsky",
         "openingHours":"Po-Pá: 8-11:30h, 12:30-17h, So: 8-11h, Ne: zavřeno",
         "streetWithNumber":"Dukelské nám. 25",
         "shopType":"ostatní",
         "city":"Hustopeče",
         "zip":"693 01",
         "url":"/booking-form/_content_shops_x40010159-elektro-team-s-r-o.html",
         "phone":"519411119",
         "email":"frost-market@email.cz"
      },
      {
         "sapId":"40029247",
         "title":"ELEKTRO-TEAM s.r.o",
         "latlng":"48.940226,16.738031",
         "region":"jihomoravsky",
         "openingHours":"Po-Pá: 8-11:30h, 12:30-17h, So: 8-11h, Ne: zavřeno",
         "streetWithNumber":"Dukelské nám. 26",
         "shopType":"ostatní",
         "city":"Hustopeče",
         "zip":"693 01",
         "url":"/booking-form/_content_shops_x40029247-elektro-team-s-r-o.html",
         "phone":"775572002",
         "email":"losmarket@atlas.cz"
      },
      {
         "sapId":"40019400",
         "title":"Elektra v pasáži",
         "latlng":"50.076571,12.372137",
         "region":"karlovarsky",
         "openingHours":"Po-Pá: 9-18h, So: 9-12h, Ne: zavřeno",
         "streetWithNumber":"Třída Svobody 16",
         "shopType":"ostatní",
         "city":"Cheb",
         "zip":"350 02",
         "url":"/booking-form/_content_shops_x40019400-elektra-v-pasazi.html",
         "phone":"777945252",
         "email":"elektravpasazi@seznam.cz"
      },
      {
         "sapId":"40002348",
         "title":"Rozum Petr-Elektro Omega",
         "latlng":"50.153829,15.461060",
         "region":"kralovehradecky",
         "openingHours":"Po-Pá: 8-17, So: 8-11h, Ne: zavřeno",
         "streetWithNumber":"Klicperovo náměstí 17",
         "shopType":"ostatní",
         "city":"Chlumec nad Cidlinou",
         "zip":"503 51",
         "url":"/booking-form/_content_shops_x40002348-rozum-petr-elektro-omega.html",
         "phone":"495485386",
         "email":"ec.omega@seznam.cz"
      },
      {
         "sapId":"40000513",
         "title":"Elektro Fany",
         "latlng":"50.243720,12.743202",
         "region":"karlovarsky",
         "openingHours":"Po-Pá: 9-18h, So: 9-12h, Ne: zavřeno",
         "streetWithNumber":"ČSM 1082",
         "shopType":"ostatní",
         "city":"Chodov u Karlových Varů",
         "zip":"357 35",
         "url":"/booking-form/_content_shops_x40000513-elektro-fany.html",
         "phone":"352666742",
         "email":"info@elektrofany.cz"
      },
      {
         "sapId":"1138",
         "title":"PLANEO Elektro Chomutov",
         "latlng":"50.483389,13.440340",
         "region":"ustecky",
         "openingHours":"Po-Pá: 9-20h, So: 9-20h, Ne: 9-20h",
         "streetWithNumber":"Obchodní zóna Otvice 275 (vedle Baumaxu)",
         "shopType":"planeo",
         "city":"Chomutov",
         "zip":"431 11",
         "url":"/booking-form/_content_shops_x1138-planeo-elektro-chomutov.html",
         "phone":"413034174, 731675959",
         "email":"chomutov2@planeo.cz"
      },
      {
         "sapId":"1136",
         "title":"PLANEO Elektro Chrudim",
         "latlng":"49.946375,15.809700",
         "region":"pardubicky",
         "openingHours":"Po-Pá: 9-20h, So: 9-20h, Ne: 9-20h",
         "streetWithNumber":"SNP 1079/II (Family center, u Kauflandu)",
         "shopType":"planeo",
         "city":"Chrudim",
         "zip":"537 05",
         "url":"/booking-form/_content_shops_x1136-planeo-elektro-chrudim.html",
         "phone":"468000730, 734390908",
         "email":"chrudim@planeo.cz"
      },
      {
         "sapId":"40014124",
         "title":"TIVIS sro",
         "latlng":"49.103128,16.379538",
         "region":"jihomoravsky",
         "openingHours":"Po-Pá: 8-17h, So: 8-10:30h, Ne: zavřeno",
         "streetWithNumber":"Jana Schwarze 5",
         "shopType":"ostatní",
         "city":"Ivančice",
         "zip":"664 91",
         "url":"/booking-form/_content_shops_x40014124-tivis-sro.html",
         "phone":"546436165",
         "email":"obchod@tivis.cz"
      },
      {
         "sapId":"40004530",
         "title":"PPPP Elektro",
         "latlng":"50.721171,15.169613",
         "region":"liberecky",
         "openingHours":"Po-Pá: 9-17h, So: 9-12h, Ne: zavřeno",
         "streetWithNumber":"5 května1081/ 4",
         "shopType":"ostatní",
         "city":"Jablonec nad Nisou",
         "zip":"466 01",
         "url":"/booking-form/_content_shops_x40004530-pppp-elektro.html",
         "phone":"483313363",
         "email":"polak.p@bluetone.cz"
      },
      {
         "sapId":"1144",
         "title":"PLANEO Elektro Jablonec nad Nisou",
         "latlng":"50.715368,15.159845",
         "region":"liberecky",
         "openingHours":"Po-Pá: 9-20h, So: 9-20h, Ne: 9-20h",
         "streetWithNumber":"Jateční 5203/2",
         "shopType":"planeo",
         "city":"Jablonec nad Nisou",
         "zip":"466 01",
         "url":"/booking-form/_content_shops_x1144-planeo-elektro-jablonec-nad-nisou.html",
         "phone":"483034160, 730182733",
         "email":"jablonecnadnisou@planeo.cz"
      },
      {
         "sapId":"40011981",
         "title":"Luboš Krytinář - Elektroservis",
         "latlng":"50.732509,15.162818",
         "region":"liberecky",
         "openingHours":"Po-Pá: 8-12h, 13-17h, So: 9-12h, Ne: zavřeno",
         "streetWithNumber":"Na Roli 2204/35",
         "shopType":"ostatní",
         "city":"Jablonec nad Nisou",
         "zip":"466 01",
         "url":"/booking-form/_content_shops_x40011981-lubos-krytinar-elektroservis.html",
         "phone":"483714119",
         "email":"info.krytinar@gmail.com"
      },
      {
         "sapId":"40022600",
         "title":"VF Electric s.r.o.",
         "latlng":"50.348172,15.913535",
         "region":"kralovehradecky",
         "openingHours":"Po-Pá: 8-17h, So: 8-11h, Ne: zavřeno",
         "streetWithNumber":"Sv. Čecha 355",
         "shopType":"ostatní",
         "city":"Jaroměř",
         "zip":"551 02",
         "url":"/booking-form/_content_shops_x40022600-vf-electric-s-r-o.html",
         "phone":"491427282",
         "email":"jaromer@vfelectric.cz"
      },
      {
         "sapId":"40018298",
         "title":"Jašovi s.r.o.",
         "latlng":"49.094448,15.892241",
         "region":"vysocina",
         "openingHours":"Po-Pá: 8-12:30h, 13-16:30h, So: 8-11h, Ne: zavřeno",
         "streetWithNumber":"Náměstí Míru 26",
         "shopType":"ostatní",
         "city":"Jaroměřice nad Rokytnou",
         "zip":"675 51",
         "url":"/booking-form/_content_shops_x40018298-jasovi-s-r-o.html",
         "phone":"568441510",
         "email":"jasajar.elektro@seznam.cz"
      },
      {
         "sapId":"40026348",
         "title":"ELEKTRO - Bubeník",
         "latlng":"49.021936,15.566533",
         "region":"vysocina",
         "openingHours":"Po-Pá: 8-12, 12:30 -17h, So: 8-11h, Ne: zavřeno",
         "streetWithNumber":"Na Podolí 308",
         "shopType":"ostatní",
         "city":"Jemnice",
         "zip":"675 31",
         "url":"/booking-form/_content_shops_x40026348-elektro-bubenik.html",
         "phone":"568441470",
         "email":"jemnice@elektro-bubenik.cz"
      },
      {
         "sapId":"40013010",
         "title":"Elektrocentrum Dvořáček",
         "latlng":"50.226277,17.205891",
         "region":"olomoucky",
         "openingHours":"Po-Pá: 8:30-12h, 13-17:30h, So: 8:30-12h, Ne: zavřeno",
         "streetWithNumber":"28 října 887",
         "shopType":"ostatní",
         "city":"Jeseník",
         "zip":"790 01",
         "url":"/booking-form/_content_shops_x40013010-elektrocentrum-dvoracek.html",
         "phone":"584402146, 608825331",
         "email":"jesenik@elektrocentrum-dvoracek.cz"
      },
      {
         "sapId":"40025141",
         "title":"HAKO-Rostislav Ivan",
         "latlng":"50.229508,17.203991",
         "region":"olomoucky",
         "openingHours":"po-pá 8-17h, So 8:30-11:30, Ne zavřeno",
         "streetWithNumber":"Masarykovo nám. 60",
         "shopType":"ostatní",
         "city":"Jeseník",
         "zip":"790 01",
         "url":"/booking-form/_content_shops_x40025141-hako-rostislav-ivan.html",
         "phone":"584411428, 724280928",
         "email":"krivanek@hako.cz"
      },
      {
         "sapId":"40006300",
         "title":"Elektro Zezula",
         "latlng":"49.632955,16.712728",
         "region":"pardubicky",
         "openingHours":"Po-Pá: 8-12:30h, 13-17h, So: 8-11h, Ne: zavřeno",
         "streetWithNumber":"Palackého nám. 31",
         "shopType":"ostatní",
         "city":"Jevíčko",
         "zip":"569 43",
         "url":"/booking-form/_content_shops_x40006300-elektro-zezula.html",
         "phone":"461325155",
         "email":"zezula.karel@centrum.cz"
      },
      {
         "sapId":"1132",
         "title":"PLANEO Elektro Jičín",
         "latlng":"50.431936,15.357353",
         "region":"kralovehradecky",
         "openingHours":"Po-Pá: 9-20h, So: 9-20h, Ne: 9-20h",
         "streetWithNumber":"Riegrova 1264 (za Lídlem)",
         "shopType":"planeo",
         "city":"Jičín",
         "zip":"506 01",
         "url":"/booking-form/_content_shops_x1132-planeo-elektro-jicin.html",
         "phone":"492602042, 734423862",
         "email":"jicin@planeo.cz"
      },
      {
         "sapId":"40000353",
         "title":"FALCO Elektro",
         "latlng":"50.436505,15.354226",
         "region":"kralovehradecky",
         "openingHours":"Po-Pá: 8-17h, So: 8-12h, Ne: zavřeno",
         "streetWithNumber":"Žižkovo nám.812",
         "shopType":"ostatní",
         "city":"Jičín",
         "zip":"506 01",
         "url":"/booking-form/_content_shops_x40000353-falco-elektro.html",
         "phone":"493532842",
         "email":"falco@jicinet.cz"
      },
      {
         "sapId":"1166",
         "title":"PLANEO Elektro Jihlava",
         "latlng":"49.399318,15.566189",
         "region":"vysocina",
         "openingHours":"Po-Pá: 9-20h, So: 9-20h, Ne: 9-20h",
         "streetWithNumber":"Vrchlického 591/63 (u nemocnice areál UNI HOBBY)",
         "shopType":"planeo",
         "city":"Jihlava",
         "zip":"586 01",
         "url":"/booking-form/_content_shops_x1166-planeo-elektro-jihlava.html",
         "phone":"563034166, 739587490",
         "email":"jihlava@planeo.cz"
      },
      {
         "sapId":"30009027",
         "title":"JILEMNICKÁ ELEKTRA",
         "latlng":"50.613335,15.507591",
         "region":"liberecky",
         "openingHours":"Po-Pá: 8-17h, So: 8-11h, Ne: zavřeno",
         "streetWithNumber":"Valdštějnská 41",
         "shopType":"ostatní",
         "city":"Jilemnice",
         "zip":"514 01",
         "url":"/booking-form/_content_shops_x30009027-jilemnicka-elektra.html",
         "phone":"481543366",
         "email":"jilemnicka.elektra@seznam.cz"
      },
      {
         "sapId":"1142",
         "title":"PLANEO Elektro Jindřichův Hradec",
         "latlng":"49.148610,15.004654",
         "region":"jihocesky",
         "openingHours":"Po-Pá: 8:30-18h, So: 9-12h, Ne: zavřeno",
         "streetWithNumber":"Jarošovská 119/II",
         "shopType":"planeo",
         "city":"Jindřichův Hradec",
         "zip":"377 01",
         "url":"/booking-form/_content_shops_x1142-planeo-elektro-jindrichuv-hradec.html",
         "phone":"393033551, 733627903",
         "email":"jindrichuvhradec@planeo.cz"
      },
      {
         "sapId":"1155",
         "title":"PLANEO Elektro Kadaň",
         "latlng":"50.384070,13.268349",
         "region":"ustecky",
         "openingHours":"Po-Pá: 9-20h, So: 9-20h, Ne: 9-20h",
         "streetWithNumber":"Na Podlesí 2050 (pod Albertem)",
         "shopType":"planeo",
         "city":"Kadaň",
         "zip":"432 01",
         "url":"/booking-form/_content_shops_x1155-planeo-elektro-kadan.html",
         "phone":"413034153, 739248249",
         "email":"kadan@planeo.cz"
      },
      {
         "sapId":"40024420",
         "title":"Elektrocentrum - EAT",
         "latlng":"48.806069,14.312146",
         "region":"jihocesky",
         "openingHours":"Po-Pá: 8.30-17.30h , So: 8-11h, Ne: zavřeno",
         "streetWithNumber":"Pohorská 120",
         "shopType":"ostatní",
         "city":"Kaplice",
         "zip":"382 41",
         "url":"/booking-form/_content_shops_x40024420-elektrocentrum-eat.html",
         "phone":"731521475",
         "email":"eat@seznam.cz"
      },
      {
         "sapId":"30026803",
         "title":"Exasoft",
         "latlng":"49.861834,18.538996",
         "region":"moravskoslezsky",
         "openingHours":"Po-Pá: 8:30-17:30h, So: 9-12h, Ne: zavřeno",
         "streetWithNumber":"tř. Osvobození 1636/39",
         "shopType":"ostatní",
         "city":"Karviná",
         "zip":"733 01",
         "url":"/booking-form/_content_shops_x30026803-exasoft.html",
         "phone":"773362045",
         "email":"karvina-osvobozeni@exasoft.cz"
      },
      {
         "sapId":"40013692",
         "title":"ESAM - Eva Skřižovská",
         "latlng":"49.852207,18.557323",
         "region":"moravskoslezsky",
         "openingHours":"Po-Pá: 8-18h, So: 8-12h, Ne: zavřeno",
         "streetWithNumber":"Kosmonautů 800",
         "shopType":"ostatní",
         "city":"Karviná",
         "zip":"733 01",
         "url":"/booking-form/_content_shops_x40013692-esam-eva-skrizovska.html",
         "phone":"596311781",
         "email":"esam@esam.cz"
      },
      {
         "sapId":"1108",
         "title":"PLANEO Elektro Karviná",
         "latlng":"49.855069,18.528849",
         "region":"moravskoslezsky",
         "openingHours":"Po-Pá: 9-20h, So: 9-20h, Ne: 9-20h",
         "streetWithNumber":"Nádražní 2/6065 (u nádraží)",
         "shopType":"planeo",
         "city":"Karviná",
         "zip":"733 01",
         "url":"/booking-form/_content_shops_x1108-planeo-elektro-karvina.html",
         "phone":"734528495, 734760658",
         "email":"karvina@planeo.cz"
      },
      {
         "sapId":"1102",
         "title":"PLANEO Elektro Kladno",
         "latlng":"50.126734,14.124244",
         "region":"stredocesky",
         "openingHours":"Po-Pá: 9-20h, So: 9-20h, Ne: 9-20h",
         "streetWithNumber":"Americká 3252 (OC JIH u Tesca)",
         "shopType":"planeo",
         "city":"Kladno",
         "zip":"272 01",
         "stampReason":"Rekonstrukce",
         "stampNote":"od 3 do 14. 2. 2019 bude prodejna uzavřena. Již nyní na prodejnu nelze posílat e-shopové objednávky.",
         "stampFrom":"9.1.2019 0:00",
         "stampTo":"10.1.2019 0:00",
         "url":"/booking-form/_content_shops_x1102-planeo-elektro-kladno.html",
         "phone":"313039517, 733788890",
         "email":"kladno2@planeo.cz"
      },
      {
         "sapId":"1118",
         "title":"PLANEO Elektro Kladno",
         "latlng":"50.131234,14.116786",
         "region":"stredocesky",
         "openingHours":"Po-Pá: 8-20h, So: 8-20h, Ne: 8-20h",
         "streetWithNumber":"Italská 50 (v Kauflandu)",
         "shopType":"planeo",
         "city":"Kladno",
         "zip":"272 00",
         "url":"/booking-form/_content_shops_x1118-planeo-elektro-kladno.html",
         "phone":"312662887, 724229225",
         "email":"kladno@planeo.cz"
      },
      {
         "sapId":"40000435",
         "title":"Elektro Šimanovský",
         "latlng":"50.387729,13.175926",
         "region":"ustecky",
         "openingHours":"Po-Pá: 8-18h, So: 8-12h, Ne: zavřeno",
         "streetWithNumber":"Sadová 408",
         "shopType":"ostatní",
         "city":"Klášterec nad Ohří",
         "zip":"431 51",
         "url":"/booking-form/_content_shops_x40000435-elektro-simanovsky.html",
         "phone":"474376042",
         "email":"prodejna@elektrosimanovsky.cz"
      },
      {
         "sapId":"40024054",
         "title":"Bašus Jaroslav",
         "latlng":"50.393224,13.182210",
         "region":"ustecky",
         "openingHours":"Po-Pá: 8-18h, So: 8-12h, Ne zavřeno",
         "streetWithNumber":"Polní 782",
         "shopType":"ostatní",
         "city":"Klášterec nad Ohří",
         "zip":"431 51",
         "url":"/booking-form/_content_shops_x40024054-basus-jaroslav.html",
         "phone":"471120740",
         "email":"j.basus@volny.cz"
      },
      {
         "sapId":"40020664",
         "title":"Elektro Efekt",
         "latlng":"49.388136,13.295545",
         "region":"plzensky",
         "openingHours":"Po-Pá: 8:30 -18h, So: 8:30-18h, Ne: 10-18h",
         "streetWithNumber":"Sportovní 783 (vedle OD Kaufland)",
         "shopType":"ostatní",
         "city":"Klatovy",
         "zip":"339 01",
         "url":"/booking-form/_content_shops_x40020664-elektro-efekt.html",
         "phone":"376322653",
         "email":"prodejna@elektroefekt.cz"
      },
      {
         "sapId":"30022727",
         "title":"Elektra Kolín S.r.o.",
         "latlng":"50.022184,15.206941",
         "region":"stredocesky",
         "openingHours":"Po-Pá: 8:30-17:30h, So: 8:30-12h, Ne: zavřeno",
         "streetWithNumber":"Jaselská 874",
         "shopType":"ostatní",
         "city":"Kolín",
         "zip":"280 02",
         "url":"/booking-form/_content_shops_x30022727-elektra-kolin-s-r-o.html",
         "phone":"321400100",
         "email":"prodejna@elektromat.cz"
      },
      {
         "sapId":"1174",
         "title":"PLANEO Elektro Kolín",
         "latlng":"50.020402,15.211683",
         "region":"stredocesky",
         "openingHours":"Po-Pá: 9-20h, So: 9-20h, Ne: 9-20h",
         "streetWithNumber":"Polepská 979 (NC Stará plynárna, u Billy)",
         "shopType":"planeo",
         "city":"Kolín",
         "zip":"280 02",
         "url":"/booking-form/_content_shops_x1174-planeo-elektro-kolin.html",
         "phone":"313035261, 735700195",
         "email":"kolin@planeo.cz"
      },
      {
         "sapId":"40029136",
         "title":"VF Electric s.r.o.",
         "latlng":"50.030208,15.189414",
         "region":"stredocesky",
         "openingHours":"Po-Pá: 8\u2013 18h, So: 8-14h, Ne: zavřeno",
         "streetWithNumber":"Pražská 417 (bývalý Mountfield)",
         "shopType":"ostatní",
         "city":"Kolín",
         "zip":"280 02",
         "url":"/booking-form/_content_shops_x40029136-vf-electric-s-r-o.html",
         "phone":"777297180",
         "email":"kolin@vfelectric.cz"
      },
      {
         "sapId":"40013334",
         "title":"Elektro Urban",
         "latlng":"49.591023,16.887995",
         "region":"olomoucky",
         "openingHours":"Po-Pá: 8-12h, 13-16h, So: 8-11h, Ne: zavřeno",
         "streetWithNumber":"E.Beneše 71",
         "shopType":"ostatní",
         "city":"Konice",
         "zip":"798 52",
         "url":"/booking-form/_content_shops_x40013334-elektro-urban.html",
         "phone":"582396236",
         "email":"elektro.konice@seznam.cz"
      },
      {
         "sapId":"30008274",
         "title":"Elektrocentrum ANLAUF s. r. o.",
         "latlng":"49.598053,18.142421",
         "region":"moravskoslezsky",
         "openingHours":"Po-Pá: 8:30-17:30h, So: 8:30-11:30h, Ne: zavřeno",
         "streetWithNumber":"Kpt. Jaroše 1076/7",
         "shopType":"ostatní",
         "city":"Kopřivnice",
         "zip":"742 21",
         "url":"/booking-form/_content_shops_x30008274-elektrocentrum-anlauf-s-r-o.html",
         "phone":"556840870",
         "email":"elkopr@seznam.cz"
      },
      {
         "sapId":"30029581",
         "title":"HK Novum - Karel Karban",
         "latlng":"49.981036,13.487812",
         "region":"plzensky",
         "openingHours":"Po-Pá: 8:30-12h, 13-17h, So: 8-11:30h, Ne: zavřeno",
         "streetWithNumber":"Náměstí osvobození 868",
         "shopType":"ostatní",
         "city":"Kralovice",
         "zip":"331 41",
         "url":"/booking-form/_content_shops_x30029581-hk-novum-karel-karban.html",
         "phone":"373396701",
         "email":"hknovum@volny.cz"
      },
      {
         "sapId":"1103",
         "title":"PLANEO Elektro Krnov",
         "latlng":"50.082805,17.692233",
         "region":"moravskoslezsky",
         "openingHours":"Po-Pá: 9-18h, So: 9-18h, Ne: 9-18h",
         "streetWithNumber":"Čs. armády 808/43b",
         "shopType":"planeo",
         "city":"Krnov",
         "zip":"794 01",
         "url":"/booking-form/_content_shops_x1103-planeo-elektro-krnov.html",
         "phone":"554611294, 734526155",
         "email":"krnov@planeo.cz"
      },
      {
         "sapId":"1152",
         "title":"PLANEO Elektro Kroměříž",
         "latlng":"49.285998,17.389228",
         "region":"zlinsky",
         "openingHours":"Po-Pá: 9-20h, So: 9-20h, Ne: 9-20h",
         "streetWithNumber":"Velehradská 4076/101, NC Rybalka (naproti Tescu)",
         "shopType":"planeo",
         "city":"Kroměříž",
         "zip":"767 01",
         "url":"/booking-form/_content_shops_x1152-planeo-elektro-kromeriz.html",
         "phone":"573034160, 730182723",
         "email":"kromeriz@planeo.cz"
      },
      {
         "sapId":"1115",
         "title":"PLANEO Elektro Kutná Hora",
         "latlng":"49.960847,15.279124",
         "region":"stredocesky",
         "openingHours":"Po-Pá: 9-18h, So: 9-13h, Ne: zavřeno",
         "streetWithNumber":"17.listopadu 182 (OC Pasáž)",
         "shopType":"planeo",
         "city":"Kutná Hora",
         "zip":"284 01",
         "url":"/booking-form/_content_shops_x1115-planeo-elektro-kutna-hora.html",
         "phone":"327525161, 724135424",
         "email":"kutnahora@planeo.cz"
      },
      {
         "sapId":"40025302",
         "title":"Marhefka Jaroslav",
         "latlng":"49.009490,17.122181",
         "region":"jihomoravsky",
         "openingHours":"Po-Pá: 8-12h, 13-17h, So: 8-11h, Ne: zavřeno",
         "streetWithNumber":"Svatoborská 19/3",
         "shopType":"ostatní",
         "city":"Kyjov",
         "zip":"697 01",
         "url":"/booking-form/_content_shops_x40025302-marhefka-jaroslav.html",
         "phone":"602892192",
         "email":"shoop@shoop.cz"
      },
      {
         "sapId":"40001543",
         "title":"Tauer elektro a.s.",
         "latlng":"49.908113,16.603739",
         "region":"pardubicky",
         "openingHours":"Po-Pá: 9-12h, 12:45 -17h, So: 9-11:30h, Ne: zavřeno",
         "streetWithNumber":"Nádražní 334",
         "shopType":"ostatní",
         "city":"Lanškroun",
         "zip":"563 01",
         "url":"/booking-form/_content_shops_x40001543-tauer-elektro-a-s.html",
         "phone":"465323223",
         "email":"lanskroun@tauerelektro.cz"
      },
      {
         "sapId":"40024490",
         "title":"AK elektro, s.r.o.",
         "latlng":"49.548120,16.575113",
         "region":"jihomoravsky",
         "openingHours":"Po-Pá: 8-12h, 13-17h, So: 8-11h, Ne: zavřeno",
         "streetWithNumber":"Českobratrská 1067/3",
         "shopType":"ostatní",
         "city":"Letovice",
         "zip":"679 61",
         "url":"/booking-form/_content_shops_x40024490-ak-elektro-s-r-o.html",
         "phone":"777733585",
         "email":"akelektro@seznam.cz"
      },
      {
         "sapId":"40000439",
         "title":"Dům elektro VIACO",
         "latlng":"50.752021,15.056139",
         "region":"liberecky",
         "openingHours":"Po-Pá: 9-18h, So: 9-12h, Ne: zavřeno",
         "streetWithNumber":"Dr. M. Horákové 531",
         "shopType":"ostatní",
         "city":"Liberec",
         "zip":"460 06",
         "url":"/booking-form/_content_shops_x40000439-dum-elektro-viaco.html",
         "phone":"485110088",
         "email":"viaco@viaco-elektro.cz"
      },
      {
         "sapId":"1110",
         "title":"PLANEO Elektro Liberec",
         "latlng":"50.774673,15.024933",
         "region":"liberecky",
         "openingHours":"Po-Pá: 9-20h, So: 9-20h, Ne: 9-20h",
         "streetWithNumber":"Sousedská 605 (NC Severka, nad Globusem)",
         "shopType":"planeo",
         "city":"Liberec",
         "zip":"460 01",
         "url":"/booking-form/_content_shops_x1110-planeo-elektro-liberec.html",
         "phone":"483033355, 603412983",
         "email":"liberec@planeo.cz"
      },
      {
         "sapId":"30023819",
         "title":"Willmann Elektro s.r.o.",
         "latlng":"49.526018,17.582828",
         "region":"olomoucky",
         "openingHours":"Po-Pá: 9-17h, So: 9-12h, Ne: zavřeno",
         "streetWithNumber":"Osecká 349/5",
         "shopType":"ostatní",
         "city":"Lipník nad Bečvou",
         "zip":"751 31",
         "url":"/booking-form/_content_shops_x30023819-willmann-elektro-s-r-o.html",
         "phone":"581773732",
         "email":"willmann@telecom.cz"
      },
      {
         "sapId":"1157",
         "title":"PLANEO Elektro Litoměřice",
         "latlng":"50.526009,14.138490",
         "region":"ustecky",
         "openingHours":"Po-Pá: 9-20h, So: 9-20h, Ne: 9-20h",
         "streetWithNumber":"Želetická 2277, OC Na Soutoku (u Alberta, u OBI)",
         "shopType":"planeo",
         "city":"Litoměřice",
         "zip":"412 01",
         "url":"/booking-form/_content_shops_x1157-planeo-elektro-litomerice.html",
         "phone":"413034176, 737265828",
         "email":"litomerice@planeo.cz"
      },
      {
         "sapId":"30008451",
         "title":"Elektro Dostál",
         "latlng":"49.699022,17.075136",
         "region":"olomoucky",
         "openingHours":"Po-Pá: 8-17h, So: 8-12h, Ne: zavřeno",
         "streetWithNumber":"Palackého 853/2",
         "shopType":"ostatní",
         "city":"Litovel",
         "zip":"784 01",
         "url":"/booking-form/_content_shops_x30008451-elektro-dostal.html",
         "phone":"585345345",
         "email":"elektro.litovel@dostal.cz"
      },
      {
         "sapId":"40002684",
         "title":"TUREK elektro",
         "latlng":"50.530745,15.372916",
         "region":"liberecky",
         "openingHours":"Po-Pá: 8-17h, So: 8-11h, Ne: zavřeno",
         "streetWithNumber":"Husovo náměstí 35",
         "shopType":"ostatní",
         "city":"Lomnice nad Popelkou",
         "zip":"512 51",
         "url":"/booking-form/_content_shops_x40002684-turek-elektro.html",
         "phone":"481672939",
         "email":"elektro.turek@email.cz"
      },
      {
         "sapId":"30008069",
         "title":"Elektro Janáček",
         "latlng":"50.357234,13.807620",
         "region":"ustecky",
         "openingHours":"Po-Pá: 8-17h, So: zavřeno, Ne: zavřeno",
         "streetWithNumber":"Husova 1080",
         "shopType":"ostatní",
         "city":"Louny",
         "zip":"440 01",
         "url":"/booking-form/_content_shops_x30008069-elektro-janacek.html",
         "phone":"415652157",
         "email":"janacek.elektro@seznam.cz"
      },
      {
         "sapId":"40011795",
         "title":"APS servis s.r.o.",
         "latlng":"50.202577,14.848938",
         "region":"stredocesky",
         "openingHours":"Po-Pá: 8-18h, So: 8-11:30h, Ne: zavřeno",
         "streetWithNumber":"Poděbradova 114",
         "shopType":"ostatní",
         "city":"Lysá nad Labem",
         "zip":"289 22",
         "url":"/booking-form/_content_shops_x40011795-aps-servis-s-r-o.html",
         "phone":"325551158",
         "email":"shop@aps-servis.cz"
      },
      {
         "sapId":"40005963",
         "title":"AMI CENTRUM-Petr Brouček",
         "latlng":"49.964075,12.699894",
         "region":"karlovarsky",
         "openingHours":"Po-Pá: 9-12h, 13-17h, So: 9-11h, Ne: zavřeno",
         "streetWithNumber":"Dvořákova 518",
         "shopType":"ostatní",
         "city":"Mariánské Lázně",
         "zip":"353 01",
         "url":"/booking-form/_content_shops_x40005963-ami-centrum-petr-broucek.html",
         "phone":"354620234",
         "email":"ami.centrum@tiscali.cz"
      },
      {
         "sapId":"1170",
         "title":"PLANEO Elektro Mělník",
         "latlng":"50.355466,14.483241",
         "region":"stredocesky",
         "openingHours":"Po-Pá: 9-20h, So: 9-20h, Ne: 9-20h",
         "streetWithNumber":"Vodárenská 4131 (vedle Jysku)",
         "shopType":"planeo",
         "city":"Mělník",
         "zip":"276 01",
         "url":"/booking-form/_content_shops_x1170-planeo-elektro-melnik.html",
         "phone":"313035141, 735700190",
         "email":"melnik@planeo.cz"
      },
      {
         "sapId":"30008271",
         "title":"BEATman s.r.o.",
         "latlng":"48.808629,16.636723",
         "region":"jihomoravsky",
         "openingHours":"Po-Pá: 9-18h, So: 9-12h, Ne: zavřeno",
         "streetWithNumber":"Brněnská 54/12",
         "shopType":"ostatní",
         "city":"Mikulov",
         "zip":"692 01",
         "url":"/booking-form/_content_shops_x30008271-beatman-s-r-o.html",
         "phone":"519512212",
         "email":"elektro@beatman.cz"
      },
      {
         "sapId":"40011696",
         "title":"Elektro Ivičič",
         "latlng":"48.810264,16.633996",
         "region":"jihomoravsky",
         "openingHours":"Po-Pá: 8-12h, 13 -17h, So: 8-11h, Ne: zavřeno",
         "streetWithNumber":"Brněnská 32",
         "shopType":"ostatní",
         "city":"Mikulov",
         "zip":"692 01",
         "url":"/booking-form/_content_shops_x40011696-elektro-ivicic.html",
         "phone":"519511398",
         "email":"info@elektromikulov.cz"
      },
      {
         "sapId":"1116",
         "title":"PLANEO Elektro Milovice",
         "latlng":"50.2268475,14.8792078",
         "region":"stredocesky",
         "openingHours":"Po-Pá: 8-19h \nSo: 8-19h \nNe: 8-19h",
         "streetWithNumber":"Italská 700 (u Tesca)",
         "shopType":"planeo",
         "city":"Milovice - Mladá",
         "zip":"289 24",
         "url":"/booking-form/_content_shops_x1116-planeo-elektro-milovice.html",
         "phone":"313034191, 604565565",
         "email":"milovice@planeo.cz"
      },
      {
         "sapId":"30018115",
         "title":"Elektro Rampas Aleš",
         "latlng":"50.657128,14.724506",
         "region":"liberecky",
         "openingHours":"Po-Pá: 8-12h, 13-17h, So: 8-11h, Ne: zavřeno",
         "streetWithNumber":"Mírová 125/III",
         "shopType":"ostatní",
         "city":"Mimoň",
         "zip":"471 24",
         "url":"/booking-form/_content_shops_x30018115-elektro-rampas-ales.html",
         "phone":"487862278",
         "email":"ales.rampas@tiscali.cz"
      },
      {
         "sapId":"1158",
         "title":"PLANEO Elektro Mladá Boleslav",
         "latlng":"50.424765,14.910548",
         "region":"stredocesky",
         "openingHours":"Po-Pá: 9-20h, So: 9-20h, Ne: 9-20h",
         "streetWithNumber":"Krátká 1301",
         "shopType":"planeo",
         "city":"Mladá Boleslav",
         "zip":"293 01",
         "url":"/booking-form/_content_shops_x1158-planeo-elektro-mlada-boleslav.html",
         "phone":"326733673, 602786212",
         "email":"mladaboleslav@planeo.cz"
      },
      {
         "sapId":"40018975",
         "title":"Tauer elektro a.s.",
         "latlng":"49.775214,16.918002",
         "region":"olomoucky",
         "openingHours":"Po-Pá: 8:30-17h, So: 8:30-12h, Ne: zavřeno",
         "streetWithNumber":"Okružní 19",
         "shopType":"ostatní",
         "city":"Mohelnice",
         "zip":"789 85",
         "url":"/booking-form/_content_shops_x40018975-tauer-elektro-a-s.html",
         "phone":"583433543",
         "email":"mohelnice@tauerelektro.cz"
      },
      {
         "sapId":"1160",
         "title":"PLANEO Elektro Mohelnice",
         "latlng":"49.775092,16.930079",
         "region":"olomoucky",
         "openingHours":"Po-Pá: 9-20h, So: 9-20h, Ne: 9-20h",
         "streetWithNumber":"Družstevní 1390/31 (u Kauflandu)",
         "shopType":"planeo",
         "city":"Mohelnice",
         "zip":"789 85",
         "url":"/booking-form/_content_shops_x1160-planeo-elektro-mohelnice.html",
         "phone":"583034193, 739380286",
         "email":"mohelnice@planeo.cz"
      },
      {
         "sapId":"40012222",
         "title":"Tauer elektro a.s.",
         "latlng":"49.760262,16.664821",
         "region":"pardubicky",
         "openingHours":"Po-Pá: 8:30-17h, So: 8:30-12h, Ne: zavřeno",
         "streetWithNumber":"Lanškrounská 19 ( OD Kubík )",
         "shopType":"ostatní",
         "city":"Moravská Třebová",
         "zip":"571 01",
         "url":"/booking-form/_content_shops_x40012222-tauer-elektro-a-s.html",
         "phone":"461310182",
         "email":"moravskatrebova@tauerelektro.cz"
      },
      {
         "sapId":"40025586",
         "title":"Elektro - Miloš Václavek",
         "latlng":"49.048730,15.811269",
         "region":"vysocina",
         "openingHours":"Po-Pá: 8:30-11:30h, 12-17h  , So: 8:30-11h, Ne: zavřeno",
         "streetWithNumber":"Husova 614",
         "shopType":"ostatní",
         "city":"Moravské Budějovice",
         "zip":"676 02",
         "url":"/booking-form/_content_shops_x40025586-elektro-milos-vaclavek.html",
         "phone":"604443992",
         "email":"elektro-prodejna@seznam.cz"
      },
      {
         "sapId":"40021398",
         "title":"Jašovi s.r.o.",
         "latlng":"49.049265,16.311739",
         "region":"jihomoravsky",
         "openingHours":"Po-Pá: 8-12:30h, 13-16:30h, So: 8-11h, Ne: zavřeno",
         "streetWithNumber":"nám. T.G.Masaryka 44",
         "shopType":"ostatní",
         "city":"Moravský Krumlov",
         "zip":"672 01",
         "url":"/booking-form/_content_shops_x40021398-jasovi-s-r-o.html",
         "phone":"515322297",
         "email":"jasa.elektro@seznam.cz"
      },
      {
         "sapId":"1117",
         "title":"PLANEO Elektro Most",
         "latlng":"50.510723,13.652460",
         "region":"ustecky",
         "openingHours":"Po-Pá: 9-20h, So: 9-20h, Ne: 9-20h",
         "streetWithNumber":"Rudolická 1209/6 (u Tesca)",
         "shopType":"planeo",
         "city":"Most",
         "zip":"434 01",
         "url":"/booking-form/_content_shops_x1117-planeo-elektro-most.html",
         "phone":"476127736, 731401901",
         "email":"most@planeo.cz"
      },
      {
         "sapId":"40000653",
         "title":"O.D. FLIP",
         "latlng":"49.989711,14.741435",
         "region":"stredocesky",
         "openingHours":"Po-Čt: 8:30-17:30h, Pá do 18h, So: 8-12:30h, Ne: zavřeno",
         "streetWithNumber":"Pražská 309",
         "shopType":"ostatní",
         "city":"Mukařov",
         "zip":"251 62",
         "url":"/booking-form/_content_shops_x40000653-o-d-flip.html",
         "phone":"323661523",
         "email":"filip@centrumobchodu.cz"
      },
      {
         "sapId":"1125",
         "title":"PLANEO Elektro Náchod",
         "latlng":"50.423225,16.189784",
         "region":"kralovehradecky",
         "openingHours":"Po-Pá: 9-20h, So: 9-20h, Ne: 9-20h",
         "streetWithNumber":"Polská 390 (u Kauflandu)",
         "shopType":"planeo",
         "city":"Náchod",
         "zip":"547 01",
         "url":"/booking-form/_content_shops_x1125-planeo-elektro-nachod.html",
         "phone":"491422509, 733148382",
         "email":"nachod@planeo.cz"
      },
      {
         "sapId":"40022618",
         "title":"KOVO - HOLUB Nepomuk s.r.o.",
         "latlng":"49.484755,13.580498",
         "region":"plzensky",
         "openingHours":"Po-Pá: 8-17h, So: 8-11:30h, Ne: zavřeno",
         "streetWithNumber":"Plzeňská 160",
         "shopType":"ostatní",
         "city":"Nepomuk",
         "zip":"335 01",
         "url":"/booking-form/_content_shops_x40022618-kovo-holub-nepomuk-s-r-o.html",
         "phone":"371592180",
         "email":"ahelektro@kovo-holub.cz"
      },
      {
         "sapId":"30009848",
         "title":"Elektro Doubek s.r.o.",
         "latlng":"50.495146,15.518885",
         "region":"kralovehradecky",
         "openingHours":"Po-Pá: 8-12, 13:30-17h, So: 8-11h, Ne: zavřeno",
         "streetWithNumber":"Kotíkova 211",
         "shopType":"ostatní",
         "city":"Nová Paka",
         "zip":"509 01",
         "url":"/booking-form/_content_shops_x30009848-elektro-doubek-s-r-o.html",
         "phone":"493724422",
         "email":"jde@elektrodoubek.cz"
      },
      {
         "sapId":"40002395",
         "title":"Elektra Machek",
         "latlng":"50.496689,15.524069",
         "region":"kralovehradecky",
         "openingHours":"Po-Pá: 8-17h, So: 8-11h, Ne: zavřeno",
         "streetWithNumber":"Krkonošská 997",
         "shopType":"ostatní",
         "city":"Nová Paka",
         "zip":"509 01",
         "url":"/booking-form/_content_shops_x40002395-elektra-machek.html",
         "phone":"493722819",
         "email":"elektra.machek@seznam.cz"
      },
      {
         "sapId":"1149",
         "title":"PLANEO Elektro Nový Bor",
         "latlng":"50.765166,14.545552",
         "region":"liberecky",
         "openingHours":"Po-Pá: 9-20h, So: 9-20h, Ne: 9-20h",
         "streetWithNumber":"B. Egermanna 882 (u Kauflandu)",
         "shopType":"planeo",
         "city":"Nový Bor",
         "zip":"473 01",
         "url":"/booking-form/_content_shops_x1149-planeo-elektro-novy-bor.html",
         "phone":"483034170, 730182725",
         "email":"novybor@planeo.cz"
      },
      {
         "sapId":"40005844",
         "title":"Elektro Dalas",
         "latlng":"50.759527,14.553448",
         "region":"liberecky",
         "openingHours":"Po-Pá: 9-12h, 13-17h, So: 9-11h, Ne: zavřeno",
         "streetWithNumber":"Dvořákova 319",
         "shopType":"ostatní",
         "city":"Nový Bor",
         "zip":"473 01",
         "url":"/booking-form/_content_shops_x40005844-elektro-dalas.html",
         "phone":"487723507",
         "email":"dalas_nb@centrum.cz"
      },
      {
         "sapId":"40007443",
         "title":"Dont Elektro",
         "latlng":"50.241865,15.491805",
         "region":"kralovehradecky",
         "openingHours":"Po-Pá: 8-17h, So: 8-11h, Ne: zavřeno",
         "streetWithNumber":"Masarykovo nám. 1144",
         "shopType":"ostatní",
         "city":"Nový Bydžov",
         "zip":"504 01",
         "url":"/booking-form/_content_shops_x40007443-dont-elektro.html",
         "phone":"495493078",
         "email":"elektrodont@email.cz"
      },
      {
         "sapId":"30009046",
         "title":"Slovák Jaroslav",
         "latlng":"49.662626,17.830454",
         "region":"moravskoslezsky",
         "openingHours":"Po-Pá: 8-17h, So: 8-11h, Ne: zavřeno",
         "streetWithNumber":"Masarykovo nám.54",
         "shopType":"ostatní",
         "city":"Odry",
         "zip":"742 35",
         "url":"/booking-form/_content_shops_x30009046-slovak-jaroslav.html",
         "phone":"556731460",
         "email":"slovak.panorama@tiscali.cz"
      },
      {
         "sapId":"30024032",
         "title":"Elektro Vaďura",
         "latlng":"49.605726,17.252139",
         "region":"olomoucky",
         "openingHours":"Po-Pá: 9-18h, So: 9-12h, Ne: zavřeno",
         "streetWithNumber":"Lazecká 73",
         "shopType":"ostatní",
         "city":"Olomouc",
         "zip":"779 00",
         "url":"/booking-form/_content_shops_x30024032-elektro-vadura.html",
         "phone":"585232976",
         "email":"elektroprivat@atlas.cz"
      },
      {
         "sapId":"40023089",
         "title":"Elektroprivat Vaďura",
         "latlng":"49.593633,17.252221",
         "region":"olomoucky",
         "openingHours":"po-pá 9-18h, So 9-12h, Ne zavřeno",
         "streetWithNumber":"Horní náměstí 15",
         "shopType":"ostatní",
         "city":"Olomouc",
         "zip":"779 00",
         "url":"/booking-form/_content_shops_x40023089-elektroprivat-vadura.html",
         "phone":"585229376, 775770222",
         "email":"elektroprivat@centrum.cz"
      },
      {
         "sapId":"1164",
         "title":"PLANEO Elektro Olomouc",
         "latlng":"49.572610,17.223843",
         "region":"olomoucky",
         "openingHours":"Po-Pá: 9-20h, So: 9-20h, Ne: 9-20h",
         "streetWithNumber":"Kafkova 493/9 (naproti aquaparku, Obchodní park Haná)",
         "shopType":"planeo",
         "city":"Olomouc",
         "zip":"783 01",
         "url":"/booking-form/_content_shops_x1164-planeo-elektro-olomouc.html",
         "phone":"583034180, 739686722",
         "email":"olomouc@planeo.cz"
      },
      {
         "sapId":"40029489",
         "title":"Elektrocentrum Dvořáček",
         "latlng":"49.944416,17.928801",
         "region":"moravskoslezsky",
         "openingHours":"Po-Pá: 9-12h, 13-17:30h, So: 8:30-12h, Ne: zavřeno",
         "streetWithNumber":"Hlučínská 1553/45 (zezadu budovy SHELL u OBI a Kauflandu)",
         "shopType":"ostatní",
         "city":"Opava",
         "zip":"747 05",
         "url":"/booking-form/_content_shops_x40029489-elektrocentrum-dvoracek.html",
         "phone":"553650396, 773625331",
         "email":"opava@elektrocentrum-dvoracek.cz"
      },
      {
         "sapId":"40013789",
         "title":"Vašíčková Hana",
         "latlng":"49.940371,17.905504",
         "region":"moravskoslezsky",
         "openingHours":"Po-Pá:8:30 \u2013 17:00, So: 8:30-11:30, Ne:zavřeno",
         "streetWithNumber":"Solná 447/27",
         "shopType":"ostatní",
         "city":"Opava",
         "zip":"746 01",
         "url":"/booking-form/_content_shops_x40013789-vasickova-hana.html",
         "phone":"553714934",
         "email":"elektromotex.opava@seznam.cz"
      },
      {
         "sapId":"40013691",
         "title":"ESAM - Eva Skřižovská",
         "latlng":"49.871216,18.425437",
         "region":"moravskoslezsky",
         "openingHours":"Po-Pá: 8-18h, So: 8-12h, Ne: zavřeno",
         "streetWithNumber":"Masarykova 1003",
         "shopType":"ostatní",
         "city":"Orlová",
         "zip":"735 14",
         "url":"/booking-form/_content_shops_x40013691-esam-eva-skrizovska.html",
         "phone":"596511649",
         "email":"esam@esam.cz"
      },
      {
         "sapId":"1124",
         "title":"PLANEO Elektro Orlová",
         "latlng":"49.878553,18.432744",
         "region":"moravskoslezsky",
         "openingHours":"Po-Pá: 9-20h, So: 9-20h, Ne: 9-20h",
         "streetWithNumber":"Okružní 1440 (nad Kauflandem)",
         "shopType":"planeo",
         "city":"Orlová",
         "zip":"735 14",
         "url":"/booking-form/_content_shops_x1124-planeo-elektro-orlova.html",
         "phone":"553034188, 735190896",
         "email":"orlova@planeo.cz"
      },
      {
         "sapId":"40019281",
         "title":"Krivčík Radek",
         "latlng":"49.806011,18.241395",
         "region":"moravskoslezsky",
         "openingHours":"Po - Pá: 9:00 - 18:00, So: 9:00 - 12:00, Ne: zavřeno",
         "streetWithNumber":"Výškovická 2",
         "shopType":"ostatní",
         "city":"Ostrava",
         "zip":"700 30",
         "url":"/booking-form/_content_shops_x40019281-krivcik-radek.html",
         "phone":"608750058",
         "email":"krivcik@volny.cz"
      },
      {
         "sapId":"1137",
         "title":"PLANEO Elektro Ostrava",
         "latlng":"49.802082,18.225356",
         "region":"moravskoslezsky",
         "openingHours":"Po-Pá: 9-21h, So: 9-21h, Ne: 9-21h",
         "streetWithNumber":"Rudná 3119/124 (Avion Shopping Park)",
         "shopType":"planeo",
         "city":"Ostrava",
         "zip":"700 30",
         "url":"/booking-form/_content_shops_x1137-planeo-elektro-ostrava.html",
         "phone":"553034195, 731600615",
         "email":"ostrava@planeo.cz"
      },
      {
         "sapId":"1156",
         "title":"PLANEO Elektro Otrokovice",
         "latlng":"49.200818,17.535165",
         "region":"zlinsky",
         "openingHours":"Po-Pá: 9-20h, So: 9-20h, Ne: 9-20h",
         "streetWithNumber":"Dr.E.Beneše (naproti Kauflandu)",
         "shopType":"planeo",
         "city":"Otrokovice",
         "zip":"765 02",
         "url":"/booking-form/_content_shops_x1156-planeo-elektro-otrokovice.html",
         "phone":"573034151, 734393517",
         "email":"otrokovice@planeo.cz"
      },
      {
         "sapId":"30008481_1",
         "title":"VF Electric s.r.o.",
         "latlng":"50.035107,15.765926",
         "region":"pardubicky",
         "openingHours":"Po-Pá: 8-18h , So: 9-14h, Ne: zavřeno",
         "streetWithNumber":"Palackého třída 2547",
         "shopType":"ostatní",
         "city":"Pardubice",
         "zip":"530 02",
         "url":"/booking-form/_content_shops_x30008481-1-vf-electric-s-r-o.html",
         "phone":"725424915",
         "email":"pardubice@vfelectric.cz"
      },
      {
         "sapId":"1146",
         "title":"PLANEO Elektro Pardubice",
         "latlng":"50.025292,15.779363",
         "region":"pardubicky",
         "openingHours":"Po-Pá: 9-20h, So: 9-20h, Ne: 9-20h",
         "streetWithNumber":"S.K.Neumanna 2859 (u Kauflandu)",
         "shopType":"planeo",
         "city":"Pardubice",
         "zip":"530 02",
         "url":"/booking-form/_content_shops_x1146-planeo-elektro-pardubice.html",
         "phone":"463033930, 734178639",
         "email":"pardubice@planeo.cz"
      },
      {
         "sapId":"40002519",
         "title":"Elektro Burian",
         "latlng":"49.428829,15.224167",
         "region":"vysocina",
         "openingHours":"Po-Pá: 8:30 -12:30h, 13:30 -17h, So: 9-11h, Ne: zavřeno",
         "streetWithNumber":"Nádražní 810",
         "shopType":"ostatní",
         "city":"Pelhřimov",
         "zip":"393 01",
         "url":"/booking-form/_content_shops_x40002519-elektro-burian.html",
         "phone":"565322479",
         "email":"info@burian-elektro.cz"
      },
      {
         "sapId":"1167",
         "title":"PLANEO Elektro Pelhřimov",
         "latlng":"49.430080,15.226900",
         "region":"vysocina",
         "openingHours":"Po-Pá: 9-20h, So: 9-20h, Ne: 9-20h",
         "streetWithNumber":"Průběžná 2483 (u Billy)",
         "shopType":"planeo",
         "city":"Pelhřimov",
         "zip":"393 01",
         "url":"/booking-form/_content_shops_x1167-planeo-elektro-pelhrimov.html",
         "phone":"565325955, 735726977",
         "email":"pelhrimov@planeo.cz"
      },
      {
         "sapId":"40001140",
         "title":"VIKI spol. s r.o.",
         "latlng":"49.430619,15.222868",
         "region":"vysocina",
         "openingHours":"Po-Pá: 9:00 -12:00h, 13:00 -17h, So:zavřeno, Ne:zavřeno",
         "streetWithNumber":"Masarykovo náměstí 18",
         "shopType":"ostatní",
         "city":"Pelhřimov",
         "zip":"393 01",
         "url":"/booking-form/_content_shops_x40001140-viki-spol-s-r-o.html",
         "phone":"565383294",
         "email":"pelhrimov@viki.sro.cz"
      },
      {
         "sapId":"1119",
         "title":"PLANEO Elektro Písek",
         "latlng":"49.297368,14.158631",
         "region":"jihocesky",
         "openingHours":"Po-Pá: 9-20h, So: 9-20h, Ne: 9-20h",
         "streetWithNumber":"Obchodní 2598 (naproti Albertu)",
         "shopType":"planeo",
         "city":"Písek",
         "zip":"397 01",
         "url":"/booking-form/_content_shops_x1119-planeo-elektro-pisek.html",
         "phone":"382210018, 724312458",
         "email":"pisek@planeo.cz"
      },
      {
         "sapId":"1154",
         "title":"PLANEO Elektro Plzeň",
         "latlng":"49.701060,13.425815",
         "region":"plzensky",
         "openingHours":"Po-Pá: 9-20h, So: 9-20h, Ne: 9-20h",
         "streetWithNumber":"Písecká 972/1 (naproti OC Olympia)",
         "shopType":"planeo",
         "city":"Plzeň",
         "zip":"326 00",
         "url":"/booking-form/_content_shops_x1154-planeo-elektro-plzen.html",
         "phone":"373034161, 604229742",
         "email":"plzen2@planeo.cz"
      },
      {
         "sapId":"1172",
         "title":"PLANEO Elektro Plzeň",
         "latlng":"49.745346,13.440752",
         "region":"plzensky",
         "openingHours":"Po-Pá: 9-20h, So: 9-20h, Ne: 9-20h",
         "streetWithNumber":"Nákupní 1445/7 (ul. Rokycanská, u Tesca)",
         "shopType":"planeo",
         "city":"Plzeň",
         "zip":"301 00",
         "url":"/booking-form/_content_shops_x1172-planeo-elektro-plzen.html",
         "phone":"373034213, 735700191",
         "email":"plzen3@planeo.cz"
      },
      {
         "sapId":"1113",
         "title":"PLANEO Elektro Plzeň",
         "latlng":"49.743471,13.375295",
         "region":"plzensky",
         "openingHours":"Po-Pá: 9-18h, So: 9-12h, Ne: zavřeno",
         "streetWithNumber":"Americká 22",
         "shopType":"planeo",
         "city":"Plzeň",
         "zip":"301 00",
         "url":"/booking-form/_content_shops_x1113-planeo-elektro-plzen.html",
         "phone":"377224431, 724026607",
         "email":"plzen@planeo.cz"
      },
      {
         "sapId":"40002176",
         "title":"Maděra a Šípek, spol. s r.o. Elektro Oáza",
         "latlng":"50.133053,15.100180",
         "region":"stredocesky",
         "openingHours":"Po-Pá: 6:30-19h, So: 8-19h, Ne: 9-19h",
         "streetWithNumber":"KLUK 116",
         "shopType":"ostatní",
         "city":"Poděbrady",
         "zip":"290 01",
         "url":"/booking-form/_content_shops_x40002176-madera-a-sipek-spol-s-r-o.html",
         "phone":"325600300",
         "email":"recepce@oaza.cz"
      },
      {
         "sapId":"40026719",
         "title":"Beky Plus s.r.o.",
         "latlng":"48.987944,16.536308",
         "region":"jihomoravsky",
         "openingHours":"Po-Pá: 8-12, 13 -17h, So: 8-11h, Ne: zavřeno",
         "streetWithNumber":"Brněnská 1019",
         "shopType":"ostatní",
         "city":"Pohořelice",
         "zip":"691 23",
         "url":"/booking-form/_content_shops_x40026719-beky-plus-s-r-o.html",
         "phone":"519424722, 519424464",
         "email":"bekyplus@seznam.cz"
      },
      {
         "sapId":"40004838",
         "title":"Servis Černý, s.r.o.",
         "latlng":"50.536040,16.233312",
         "region":"kralovehradecky",
         "openingHours":"Po-Pá: 8-17h, So: 8-11h, Ne: zavřeno",
         "streetWithNumber":"Masarykovo náměstí 77",
         "shopType":"ostatní",
         "city":"Police nad Metují",
         "zip":"549 54",
         "url":"/booking-form/_content_shops_x40004838-servis-cerny-s-r-o.html",
         "phone":"491541078",
         "email":"police@servis-cerny.cz"
      },
      {
         "sapId":"40026773",
         "title":"Elektro ZAPA",
         "latlng":"49.719253,16.280530",
         "region":"pardubicky",
         "openingHours":"Po-Pá: 8:30-18h, So: 8:30-12h, Ne: zavřeno",
         "streetWithNumber":"Hegerova 107",
         "shopType":"ostatní",
         "city":"Polička",
         "zip":"572 01",
         "url":"/booking-form/_content_shops_x40026773-elektro-zapa.html",
         "phone":"777818017",
         "email":"info@zapa-elektro.cz"
      },
      {
         "sapId":"1301",
         "title":"PLANEO Elektro Praha 11",
         "latlng":"50.025900,14.522306",
         "region":"praha",
         "openingHours":"Po-Pá: 8-19h, So: 8-19h, Ne: 9-19h",
         "streetWithNumber":"Bohúňova 1550/19",
         "shopType":"planeo",
         "city":"Praha 11",
         "zip":"149 00",
         "url":"/booking-form/_content_shops_x1301-planeo-elektro-praha-11.html",
         "phone":"230234427, 737265844",
         "email":"praha@planeo.cz"
      },
      {
         "sapId":"40004491",
         "title":"Elektro TEK LINE s.r.o.",
         "latlng":"50.089130,14.467842",
         "region":"praha",
         "openingHours":"Po-Pá: 9-12h,13-18h, So: 9-12h, Ne: zavřeno",
         "streetWithNumber":"Biskupcova 6",
         "shopType":"ostatní",
         "city":"Praha 3",
         "zip":"130 00",
         "url":"/booking-form/_content_shops_x40004491-elektro-tek-line-s-r-o.html",
         "phone":"222586657",
         "email":"ell.boss@seznam.cz"
      },
      {
         "sapId":"40000566",
         "title":"Elektro Peřina",
         "latlng":"49.985731,14.368708",
         "region":"praha",
         "openingHours":"Po-Pá: 8:30-17h, So: 8:30 -12h, Ne: zavřeno",
         "streetWithNumber":"Věštínská 13/1266",
         "shopType":"ostatní",
         "city":"Praha 5",
         "zip":"153 00",
         "url":"/booking-form/_content_shops_x40000566-elektro-perina.html",
         "phone":"607841698, 257811287",
         "email":"el-perina@volny.cz"
      },
      {
         "sapId":"40010367",
         "title":"Elektrouniversal",
         "latlng":"50.084063,14.365251",
         "region":"praha",
         "openingHours":"Po-Pá: 8:30-18:30h, So: 9-12h, Ne: zavřeno",
         "streetWithNumber":"Bělohorská 128",
         "shopType":"ostatní",
         "city":"Praha 6",
         "zip":"160 00",
         "url":"/booking-form/_content_shops_x40010367-elektrouniversal.html",
         "phone":"220511444",
         "email":"elektrouniversal.p1@telecom.cz"
      },
      {
         "sapId":"40026235",
         "title":"Elektrouniversal",
         "latlng":"50.084065,14.365254",
         "region":"praha",
         "openingHours":"Po-Pá: 8:30-18:30h, So: 9-12h, Ne: zavřeno",
         "streetWithNumber":"Bělohorská 122",
         "shopType":"ostatní",
         "city":"Praha 6",
         "zip":"160 00",
         "url":"/booking-form/_content_shops_x40026235-elektrouniversal.html",
         "phone":"220517080",
         "email":"audio-video@elektrouniversal.cz"
      },
      {
         "sapId":"40032138",
         "title":"Elektrouniversal",
         "latlng":"50.099619,14.396174",
         "region":"praha",
         "openingHours":"Po-Pá: 8:30-18h, So:zavřeno, Ne: zavřeno",
         "streetWithNumber":"Vítězné náměstí 2",
         "shopType":"ostatní",
         "city":"Praha 6",
         "zip":"160 00",
         "url":"/booking-form/_content_shops_x40032138-elektrouniversal.html",
         "phone":"224318351",
         "email":"kulatak@elektrouniversal.cz"
      },
      {
         "sapId":"30008585",
         "title":"Elektrometal servis",
         "latlng":"50.110312,14.473295",
         "region":"praha",
         "openingHours":"Po-Čt: 7:30-17h, Pá: 7:30-16h, Ne: zavřeno",
         "streetWithNumber":"Horovo náměstí 1",
         "shopType":"ostatní",
         "city":"Praha 8",
         "zip":"180 00",
         "stampReason":"Lorem ipsum",
         "stampNote":"Dolor sit amet...",
         "stampFrom":"1.12.2018 0:00",
         "stampTo":"31.12.2018 0:00",
         "url":"/booking-form/_content_shops_x30008585-elektrometal-servis.html",
         "phone":"284829075",
         "email":"martin.hilsky@elektrometal.cz"
      },
      {
         "sapId":"40035619",
         "title":"Kadlec Elektro",
         "latlng":"49.014150,14.002483",
         "region":"jihocesky",
         "openingHours":"Po-Pá: 8-18h, So: 8-12h, Ne: zavřeno",
         "streetWithNumber":"Zvolenská 339",
         "shopType":"ostatní",
         "city":"Prachatice",
         "zip":"383 01",
         "url":"/booking-form/_content_shops_x40035619-kadlec-elektro.html",
         "phone":"604505608",
         "email":"prachatice@elektrokadlec.cz"
      },
      {
         "sapId":"1120",
         "title":"PLANEO Elektro Prostějov",
         "latlng":"49.484056,17.125868",
         "region":"olomoucky",
         "openingHours":"Po-Pá: 9-20h, So: 9-20h, Ne: 9-20h",
         "streetWithNumber":"Sebastiniho 6 (u Tesca)",
         "shopType":"planeo",
         "city":"Prostějov",
         "zip":"796 07",
         "stampReason":"test",
         "stampNote":"test raítka",
         "stampFrom":"1.1.2019 0:00",
         "stampTo":"31.1.2019 18:00",
         "url":"/booking-form/_content_shops_x1120-planeo-elektro-prostejov.html",
         "phone":"582365404, 724320585",
         "email":"prostejov@planeo.cz"
      },
      {
         "sapId":"40022705",
         "title":"Elektrouniversal",
         "latlng":"50.039009,15.566389",
         "region":"pardubicky",
         "openingHours":"Po-Pá: 8-17h, So: 8-11h, Ne: zavřeno",
         "streetWithNumber":"Hradecká 780",
         "shopType":"ostatní",
         "city":"Přelouč",
         "zip":"535 01",
         "url":"/booking-form/_content_shops_x40022705-elektrouniversal.html",
         "phone":"466989272",
         "email":"prelouc@elektrouniversal.cz"
      },
      {
         "sapId":"1173",
         "title":"PLANEO Elektro Přerov II",
         "latlng":"49.449172,17.472393",
         "region":"olomoucky",
         "openingHours":"13. 4. 2020 ZAVŘENO<\/strong>\r\nPo-Pá: 9-20 hod\r\nSo: 9-20 hod\r\nNe: 9-20 hod",
         "streetWithNumber":"Želatovská 3563/40 (u nového Kauflandu)",
         "shopType":"planeo",
         "city":"Přerov",
         "zip":"750 02",
         "url":"/booking-form/_content_shops_x1173-planeo-elektro-prerov-ii.html",
         "phone":"583034706, 734266332",
         "email":"prerov2@planeo.cz"
      },
      {
         "sapId":"1130",
         "title":"PLANEO Elektro Přerov",
         "latlng":"49.444998,17.451752",
         "region":"olomoucky",
         "openingHours":"Po-Út: 9-19h, \r\nSt-Pá: 9-19h, \r\nSo: 9-17h, \r\nNe: 9-17h",
         "streetWithNumber":"Tovární 1021/5 (u Alberta)",
         "shopType":"planeo",
         "city":"Přerov",
         "zip":"750 02",
         "url":"/booking-form/_content_shops_x1130-planeo-elektro-prerov.html",
         "phone":"581701073, 733627777",
         "email":"prerov@planeo.cz"
      },
      {
         "sapId":"1129",
         "title":"PLANEO Elektro Příbram",
         "latlng":"49.671968,13.988040",
         "region":"stredocesky",
         "openingHours":"Po-Pá: 9-20h, So: 9-20h, Ne: 9-20h",
         "streetWithNumber":"Žežická 600 (u Tesca)",
         "shopType":"planeo",
         "city":"Příbram",
         "zip":"261 01",
         "url":"/booking-form/_content_shops_x1129-planeo-elektro-pribram.html",
         "phone":"313039518, 731644450",
         "email":"pribram@planeo.cz"
      },
      {
         "sapId":"40013382",
         "title":"CZECOM s.r.o.",
         "latlng":"50.103993,13.742575",
         "region":"stredocesky",
         "openingHours":"Po-Pá: 8:30-17h, So: 8:30-11:30h, Ne: zavřeno",
         "streetWithNumber":"Vinohradská 2234",
         "shopType":"ostatní",
         "city":"Rakovník",
         "zip":"269 01",
         "url":"/booking-form/_content_shops_x40013382-czecom-s-r-o.html",
         "phone":"313512797",
         "email":"planeo@czecom.cz"
      },
      {
         "sapId":"1159",
         "title":"PLANEO Elektro Rakovník",
         "latlng":"50.100927,13.731649",
         "region":"stredocesky",
         "openingHours":"Po-Pá: 9-20h, So: 9-20h, Ne: 9-20h",
         "streetWithNumber":"Nábřeží Dr. Beneše 2551 (u Billy)",
         "shopType":"planeo",
         "city":"Rakovník",
         "zip":"269 01",
         "url":"/booking-form/_content_shops_x1159-planeo-elektro-rakovnik.html",
         "phone":"313034258, 731549895",
         "email":"rakovnik@planeo.cz"
      },
      {
         "sapId":"40002277",
         "title":"Elektro Fedák",
         "latlng":"49.741617,13.597579",
         "region":"plzensky",
         "openingHours":"Po-Pá: 8-17,30h, So: 8-12h, Ne: zavřeno",
         "streetWithNumber":"Malé náměstí 121",
         "shopType":"ostatní",
         "city":"Rokycany",
         "zip":"337 01",
         "url":"/booking-form/_content_shops_x40002277-elektro-fedak.html",
         "phone":"371722038",
         "email":"info@fedak.cz"
      },
      {
         "sapId":"1145",
         "title":"PLANEO Elektro Roudnice nad Labem",
         "latlng":"50.423836,14.246122",
         "region":"ustecky",
         "openingHours":"Po-Pá: 9-20h, So: 9-20h, Ne: 9-20h",
         "streetWithNumber":"Alej 17.listopadu 2721 (u Kauflandu)",
         "shopType":"planeo",
         "city":"Roudnice nad Labem",
         "zip":"413 01",
         "url":"/booking-form/_content_shops_x1145-planeo-elektro-roudnice-nad-labem.html",
         "phone":"413034159, 604291245",
         "email":"roudnicenadlabem@planeo.cz"
      },
      {
         "sapId":"40021206",
         "title":"Ergo Elektra, s.r.o.",
         "latlng":"50.956464,14.557207",
         "region":"ustecky",
         "openingHours":"Po-Pá: 8-17h, So: 8-11h, Ne: zavřeno",
         "streetWithNumber":"Jiříkovská 599/102",
         "shopType":"ostatní",
         "city":"Rumburk",
         "zip":"408 01",
         "url":"/booking-form/_content_shops_x40021206-ergo-elektra-s-r-o.html",
         "phone":"412384794",
         "email":"info@ergoelektra.cz"
      },
      {
         "sapId":"40001437",
         "title":"HHEL s.r.o.",
         "latlng":"50.162577,16.274493",
         "region":"kralovehradecky",
         "openingHours":"Po-Pá: 8:30-17:00h, So: 8:30-11:00, Ne: zavřeno",
         "streetWithNumber":"Staré náměstí 51",
         "shopType":"ostatní",
         "city":"Rychnov nad Kněžnou",
         "zip":"516 01",
         "url":"/booking-form/_content_shops_x40001437-hhel-s-r-o.html",
         "phone":"777 222 458, 777 222 463",
         "email":"hel.rk@seznam.cz"
      },
      {
         "sapId":"40004089",
         "title":"Elmax store, a.s.",
         "latlng":"50.161579,16.274859",
         "region":"kralovehradecky",
         "openingHours":"Po-Pá: 8:30-17h, So: 8:30-11:00h, Ne: zavřeno",
         "streetWithNumber":"Havlíčkova 1372",
         "shopType":"ostatní",
         "city":"Rychnov nad Kněžnou",
         "zip":"516 01",
         "url":"/booking-form/_content_shops_x40004089-elmax-store-a-s.html",
         "phone":"599529280",
         "email":"rychnov@elmax.cz"
      },
      {
         "sapId":"40013693",
         "title":"ESAM - Eva Skřižovská",
         "latlng":"49.866119,18.376319",
         "region":"moravskoslezsky",
         "openingHours":"Po-Pá: 8-17:30h, So: 8-11h, Ne: zavřeno",
         "streetWithNumber":"Orlovská 404",
         "shopType":"ostatní",
         "city":"Rychvald",
         "zip":"735 32",
         "url":"/booking-form/_content_shops_x40013693-esam-eva-skrizovska.html",
         "phone":"596546757",
         "email":"esam@esam.cz"
      },
      {
         "sapId":"40012396",
         "title":"Elektrocentrum Kadlec s.r.o.",
         "latlng":"50.002551,14.659758",
         "region":"stredocesky",
         "openingHours":"Po-Pá: 9-20h, So: 9-18h, Ne: 10-17h",
         "streetWithNumber":"Černokostelecká (u Tesca)",
         "shopType":"ostatní",
         "city":"Říčany",
         "zip":"251 01",
         "url":"/booking-form/_content_shops_x40012396-elektrocentrum-kadlec-s-r-o.html",
         "phone":"323603056",
         "email":"ricany@planeo.cz"
      },
      {
         "sapId":"40023944",
         "title":"VF Electric s.r.o.",
         "latlng":"49.871093,14.896023",
         "region":"stredocesky",
         "openingHours":"Po-Pá: 8-12, 13-17h, So: 8-11h, Ne: zavřeno",
         "streetWithNumber":"Benešovská 4",
         "shopType":"ostatní",
         "city":"Sázava",
         "zip":"285 06",
         "url":"/booking-form/_content_shops_x40023944-vf-electric-s-r-o.html",
         "phone":"327321678",
         "email":"sazava@vfelectric.cz"
      },
      {
         "sapId":"40001624",
         "title":"AV TECHNIK",
         "latlng":"49.656030,14.424046",
         "region":"stredocesky",
         "openingHours":"Po-Pá: 9-12h,13-18h, So: 8-12h, Ne: zavřeno",
         "streetWithNumber":"Víta Nejedlého 312",
         "shopType":"ostatní",
         "city":"Sedlčany",
         "zip":"264 01",
         "url":"/booking-form/_content_shops_x40001624-av-technik.html",
         "phone":"318875190",
         "email":"josefcihak@seznam.cz"
      },
      {
         "sapId":"40003208",
         "title":"JM Elektra",
         "latlng":"50.602536,15.336626",
         "region":"liberecky",
         "openingHours":"Po-Pá: 8-12h, 13-17h, So: 8:30-11h, Ne: zavřeno",
         "streetWithNumber":"Husova 80 (U radnice)",
         "shopType":"ostatní",
         "city":"Semily",
         "zip":"513 01",
         "url":"/booking-form/_content_shops_x40003208-jm-elektra.html",
         "phone":"481625497",
         "email":"jmelektro@ipnet.cz"
      },
      {
         "sapId":"30020648",
         "title":"Elektro - Maxera s. r. o.",
         "latlng":"49.259924,14.718220",
         "region":"jihocesky",
         "openingHours":"Po - Pá 8:00 - 17:00, So 8:00 - 11:00, Ne: zavřeno",
         "streetWithNumber":"náměstí Republiky 102/I",
         "shopType":"ostatní",
         "city":"Soběslav",
         "zip":"392 01",
         "url":"/booking-form/_content_shops_x30020648-elektro-maxera-s-r-o.html",
         "phone":"381521156",
         "email":"pokladna@maxera.cz"
      },
      {
         "sapId":"1101",
         "title":"PLANEO Elektro Sokolov",
         "latlng":"50.175381,12.669258",
         "region":"karlovarsky",
         "openingHours":"Po-Pá: 9-20h \r\nSo: 9-20h \r\nNe: 9-20h",
         "streetWithNumber":"Marie Majerové 2193 (u Tesca)",
         "shopType":"planeo",
         "city":"Sokolov",
         "zip":"356 01",
         "stampReason":"Rekonstrukce",
         "stampNote":"Znovu otevíráme 31.1.2019",
         "stampFrom":"23.11.2018 0:00",
         "stampTo":"3.10.2018 0:00",
         "url":"/booking-form/_content_shops_x1101-planeo-elektro-sokolov.html",
         "phone":"352695547, 731682300",
         "email":"sokolov@planeo.cz"
      },
      {
         "sapId":"1177",
         "title":"PLANEO Elektro Ostrava 2",
         "latlng":"49.849748,18.145538",
         "region":"moravskoslezsky",
         "openingHours":"Po - Út: 9-19h\r\nSt-Pa : 9-20h\r\nSo: 9-20h\r\nNe: 9-20h",
         "streetWithNumber":"Plesná  884/1 (u Globusu)",
         "shopType":"ostatní",
         "city":"Stará  Plesná",
         "zip":"725 27",
         "url":"/booking-form/_content_shops_x1177-planeo-elektro-ostrava-2.html",
         "phone":"553034707",
         "mobile":"703424309",
         "email":"ostrava2@planeo.cz"
      },
      {
         "sapId":"1123",
         "title":"PLANEO Elektro Staré Město",
         "latlng":"49.078086,17.452458",
         "region":"zlinsky",
         "openingHours":"Po-Pá: 9-20h, So: 9-20h, Ne: 9-20h",
         "streetWithNumber":"Východní 2191 (u Alberta)",
         "shopType":"planeo",
         "city":"Staré Město",
         "zip":"686 06",
         "url":"/booking-form/_content_shops_x1123-planeo-elektro-stare-mesto.html",
         "phone":"572503372, 724826484",
         "email":"staremesto@planeo.cz"
      },
      {
         "sapId":"30010978",
         "title":"Elektro Villner",
         "latlng":"49.260418,13.902302",
         "region":"jihocesky",
         "openingHours":"Po-Pá: 8-17h, So: 8-12h, Ne: zavřeno",
         "streetWithNumber":"Podskalská 316",
         "shopType":"ostatní",
         "city":"Strakonice",
         "zip":"386 01",
         "url":"/booking-form/_content_shops_x30010978-elektro-villner.html",
         "phone":"383322041, 608324254",
         "email":"info@elektrovillner.cz"
      },
      {
         "sapId":"1143",
         "title":"PLANEO Elektro Strakonice",
         "latlng":"49.252820,13.914225",
         "region":"jihocesky",
         "openingHours":"Po-Pá: 9-18h, So: 9-12h, Ne: zavřeno",
         "streetWithNumber":"Volyňská 158",
         "shopType":"planeo",
         "city":"Strakonice",
         "zip":"386 01",
         "url":"/booking-form/_content_shops_x1143-planeo-elektro-strakonice.html",
         "phone":"393033550, 734186274",
         "email":"strakonice@planeo.cz"
      },
      {
         "sapId":"40001206",
         "title":"Radiotechnik - Karel Korec",
         "latlng":"49.230659,13.520499",
         "region":"plzensky",
         "openingHours":"Po-Pá: 8:30-12h, 13-17h, So: 9-12h, Ne: zavřeno",
         "streetWithNumber":"nám. Svobody 38",
         "shopType":"ostatní",
         "city":"Sušice",
         "zip":"342 01",
         "url":"/booking-form/_content_shops_x40001206-radiotechnik-karel-korec.html",
         "phone":"376523353",
         "email":"radiotechnik@iol.cz"
      },
      {
         "sapId":"40012221",
         "title":"Radiotechnik - Karel Korec",
         "latlng":"49.230221,13.517226",
         "region":"plzensky",
         "openingHours":"Po-Pá: 9-20h, So: 9-12h, Ne: zavřeno",
         "streetWithNumber":"Americké armády 80",
         "shopType":"ostatní",
         "city":"Sušice",
         "zip":"342 01",
         "url":"/booking-form/_content_shops_x40012221-radiotechnik-karel-korec.html",
         "phone":"376528881",
         "email":"radiotechnik@iol.cz"
      },
      {
         "sapId":"40005140",
         "title":"Elektro Laňka",
         "latlng":"49.668011,15.403772",
         "region":"vysocina",
         "openingHours":"Po-Pá: 8-17h, So: 8-11h, Ne: zavřeno",
         "streetWithNumber":"nám.Trčků z Lípy 38",
         "shopType":"ostatní",
         "city":"Světlá nad Sázavou",
         "zip":"582 91",
         "url":"/booking-form/_content_shops_x40005140-elektro-lanka.html",
         "phone":"569456692",
         "email":"elektro.lanka@centrum.cz"
      },
      {
         "sapId":"1134",
         "title":"PLANEO Elektro Svitavy",
         "latlng":"49.755014,16.477110",
         "region":"pardubicky",
         "openingHours":"Po-Pá: 9-20h, So: 9-20h, Ne: 9-20h",
         "streetWithNumber":"U Tří mostů 542 (u Alberta)",
         "shopType":"planeo",
         "city":"Svitavy",
         "zip":"568 02",
         "url":"/booking-form/_content_shops_x1134-planeo-elektro-svitavy.html",
         "phone":"461542451, 731636410",
         "email":"svitavy@planeo.cz"
      },
      {
         "sapId":"40001542",
         "title":"Tauer elektro a.s.",
         "latlng":"49.756749,16.473288",
         "region":"pardubicky",
         "openingHours":"Po-Pá: 8:30-17h, So: 8:30-12h, Ne: zavřeno",
         "streetWithNumber":"Dr.Milady Horákové 4",
         "shopType":"ostatní",
         "city":"Svitavy",
         "zip":"568 02",
         "url":"/booking-form/_content_shops_x40001542-tauer-elektro-a-s.html",
         "phone":"461540132",
         "email":"svitavymo@tauerelektro.cz"
      },
      {
         "sapId":"1109",
         "title":"PLANEO Elektro Šenov u Nového Jičína",
         "latlng":"49.612119,17.996589",
         "region":"moravskoslezsky",
         "openingHours":"Po-Pá: 9-20h, So: 9-20h, Ne: 9-20h",
         "streetWithNumber":"Dukelská 670 (u Tesca)",
         "shopType":"planeo",
         "city":"Šenov u Nového Jičína",
         "zip":"742 42",
         "url":"/booking-form/_content_shops_x1109-planeo-elektro-senov-u-noveho.html",
         "phone":"593033223, 724170802",
         "email":"novyjicin@planeo.cz"
      },
      {
         "sapId":"40003124",
         "title":"Hako a Enter s.r.o.",
         "latlng":"49.968588,16.972403",
         "region":"olomoucky",
         "openingHours":"Po-Pá: 8:30-17h, So: Zavřeno, Ne: zavřeno",
         "streetWithNumber":"Generála Svobody 42",
         "shopType":"ostatní",
         "city":"Šumperk",
         "zip":"787 01",
         "url":"/booking-form/_content_shops_x40003124-hako-a-enter-s-r-o.html",
         "phone":"583211658",
         "email":"elektro@sumnet.cz"
      },
      {
         "sapId":"40014820",
         "title":"Elektrocentrum Dvořáček",
         "latlng":"49.956852,16.971213",
         "region":"olomoucky",
         "openingHours":"Po-Pá: 8:30-12, 13-17h, So: 8:30-12h, Ne: zavřeno",
         "streetWithNumber":"Jesenická 2849/2b",
         "shopType":"ostatní",
         "city":"Šumperk",
         "zip":"787 01",
         "url":"/booking-form/_content_shops_x40014820-elektrocentrum-dvoracek.html",
         "phone":"583210271",
         "email":"sumperk@elektrocentrum-dvoracek.cz"
      },
      {
         "sapId":"1107",
         "title":"PLANEO Elektro Tábor",
         "latlng":"49.388063,14.693064",
         "region":"jihocesky",
         "openingHours":"Po-Pá: 9-20h, So: 9-20h, Ne: 9-20h",
         "streetWithNumber":"Soběslavská 3073 (u Baumaxu)",
         "shopType":"planeo",
         "city":"Tábor",
         "zip":"390 01",
         "url":"/booking-form/_content_shops_x1107-planeo-elektro-tabor.html",
         "phone":"389602133, 734526156",
         "email":"tabor@planeo.cz"
      },
      {
         "sapId":"40021254",
         "title":"ELEKTRO PW",
         "latlng":"49.412739,14.669582",
         "region":"jihocesky",
         "openingHours":"Po-Pá: 9-17h, So: 8-11,30h, Ne: zavřeno",
         "streetWithNumber":"9. května 657/12",
         "shopType":"ostatní",
         "city":"Tábor",
         "zip":"390 02",
         "url":"/booking-form/_content_shops_x40021254-elektro-pw.html",
         "phone":"381254254",
         "email":"elektropw3@seznam.cz"
      },
      {
         "sapId":"30021277",
         "title":"ELEKTRO PW",
         "latlng":"49.412530,14.669243",
         "region":"jihocesky",
         "openingHours":"Po-Pá: 9-17h, So: 8-11,30h, Ne: zavřeno",
         "streetWithNumber":"9. května 1988",
         "shopType":"ostatní",
         "city":"Tábor",
         "zip":"390 02",
         "url":"/booking-form/_content_shops_x30021277-elektro-pw.html",
         "phone":"381213164",
         "email":"elektropw@seznam.cz"
      },
      {
         "sapId":"40013663",
         "title":"Elektro Nový-PLANEO s.r.o.",
         "latlng":"49.798347,12.633836",
         "region":"plzensky",
         "openingHours":"Po-Pá: 8-18h, So: 8-13h, Ne: zavřeno",
         "streetWithNumber":"Hornická 1786",
         "shopType":"ostatní",
         "city":"Tachov",
         "zip":"347 01",
         "url":"/booking-form/_content_shops_x40013663-elektro-novy-planeo-s-r-o.html",
         "phone":"374723467",
         "email":"elektronovy@atlas.cz"
      },
      {
         "sapId":"40018971",
         "title":"ELSAP - Princ František",
         "latlng":"50.739397,15.308630",
         "region":"liberecky",
         "openingHours":"Po-Pá: 8:30-12h, 12:30-17h, So: 9-11h, Ne: zavřeno",
         "streetWithNumber":"Krkonošská 290",
         "shopType":"ostatní",
         "city":"Tanvald",
         "zip":"468 41",
         "url":"/booking-form/_content_shops_x40018971-elsap-princ-frantisek.html",
         "phone":"773880988",
         "email":"info@elsapprinc.cz"
      },
      {
         "sapId":"40019759",
         "title":"Elektro Přibyl",
         "latlng":"49.182506,15.455315",
         "region":"vysocina",
         "openingHours":"Po-Pá: 7:30-18h, So: 7:30-12h, Ne: zavřeno",
         "streetWithNumber":"Svatoanenská 81",
         "shopType":"ostatní",
         "city":"Telč",
         "zip":"588 56",
         "url":"/booking-form/_content_shops_x40019759-elektro-pribyl.html",
         "phone":"567212236",
         "email":"elektrotelc@seznam.cz"
      },
      {
         "sapId":"1151",
         "title":"PLANEO Elektro Teplice",
         "latlng":"50.640303,13.824688",
         "region":"ustecky",
         "openingHours":"Po-Pá: 9-21h, So: 9-21h, Ne: 9-21h",
         "streetWithNumber":"OC Fontána, Náměstí Svobody 3312",
         "shopType":"planeo",
         "city":"Teplice",
         "zip":"415 01",
         "url":"/booking-form/_content_shops_x1151-planeo-elektro-teplice.html",
         "phone":"413034156, 733628136",
         "email":"teplice@planeo.cz"
      },
      {
         "sapId":"40009458",
         "title":"Elektro Tišnov",
         "latlng":"49.349320,16.422889",
         "region":"jihomoravsky",
         "openingHours":"Po-Pá: 8-17h, So: 8-11h, Ne: zavřeno",
         "streetWithNumber":"nám. Míru 118",
         "shopType":"ostatní",
         "city":"Tišnov",
         "zip":"666 01",
         "url":"/booking-form/_content_shops_x40009458-elektro-tisnov.html",
         "phone":"549410024",
         "email":"elektro.tisnov@seznam.cz"
      },
      {
         "sapId":"40001590",
         "title":"SAPE s.r.o.",
         "latlng":"50.060369,12.986783",
         "region":"karlovarsky",
         "openingHours":"Po-Pá: 9-12h, 13-17h, So: 8-12h, Ne: zavřeno",
         "streetWithNumber":"Malé náměstí 145",
         "shopType":"ostatní",
         "city":"Toužim",
         "zip":"364 01",
         "url":"/booking-form/_content_shops_x40001590-sape-s-r-o.html",
         "phone":"353312700",
         "email":"sape@sape.cz"
      },
      {
         "sapId":"40022126",
         "title":"Elektro Stráský s.r.o.",
         "latlng":"48.840952,14.637978",
         "region":"jihocesky",
         "openingHours":"Po-Pá: 8-12h, 13-17h, So: 8-11, Ne: zavřeno",
         "streetWithNumber":"Žižkovo náměstí 139",
         "shopType":"ostatní",
         "city":"Trhové Sviny",
         "zip":"374 01",
         "url":"/booking-form/_content_shops_x40022126-elektro-strasky-s-r-o.html",
         "phone":"386444410",
         "email":"elektrostr@volny.cz"
      },
      {
         "sapId":"40000746",
         "title":"Elmont-ch Elektro",
         "latlng":"50.562359,15.910392",
         "region":"kralovehradecky",
         "openingHours":"Po-Pá: 9-17:30h, So: 8:30-11:30h, Ne: zavřeno",
         "streetWithNumber":"Obchodní dům Horská 884",
         "shopType":"ostatní",
         "city":"Trutnov",
         "zip":"541 01",
         "url":"/booking-form/_content_shops_x40000746-elmont-ch-elektro.html",
         "phone":"499812922",
         "email":"elektroplaneo@centrum.cz"
      },
      {
         "sapId":"1148",
         "title":"PLANEO Elektro Trutnov",
         "latlng":"50.571327,15.892420",
         "region":"kralovehradecky",
         "openingHours":"Po-Pá: 9-20h, So: 9-20h, Ne: 9-20h",
         "streetWithNumber":"Obchodní 136 (u Tesca, u OBI)",
         "shopType":"planeo",
         "city":"Trutnov",
         "zip":"541 01",
         "url":"/booking-form/_content_shops_x1148-planeo-elektro-trutnov.html",
         "phone":"493034030, 730182727",
         "email":"trutnov@planeo.cz"
      },
      {
         "sapId":"40026298",
         "title":"Elektro Klusáček",
         "latlng":"49.222392,15.884420",
         "region":"vysocina",
         "openingHours":"Po-Pá: 8:30-12h, 13-17h, So:zavřeno, Ne: zavřeno",
         "streetWithNumber":"Kpt. Jaroše 736/6",
         "shopType":"ostatní",
         "city":"Třebíč",
         "zip":"674 01",
         "url":"/booking-form/_content_shops_x40026298-elektro-klusacek.html",
         "phone":"603495334",
         "email":"elektro.klusacek@seznam.cz"
      },
      {
         "sapId":"40029695",
         "title":"Bouz Jaroslav",
         "latlng":"49.011115,14.787839",
         "region":"jihocesky",
         "openingHours":"Po-Pá 8,00 - 17,30 h, So 8,00 \u2013 12,00h, Ne: zavřeno",
         "streetWithNumber":"Na kopečku 730",
         "shopType":"ostatní",
         "city":"Třeboň",
         "zip":"379 01",
         "url":"/booking-form/_content_shops_x40029695-bouz-jaroslav.html",
         "phone":"384721171",
         "email":"elektro@bouz.cz"
      },
      {
         "sapId":"40001139",
         "title":"VIKI spol. s r.o.",
         "latlng":"49.292671,15.483864",
         "region":"vysocina",
         "openingHours":"Po-Pá: 9-12h, 13-17h, So:zavřeno, Ne: zavřeno",
         "streetWithNumber":"Malé náměstí 1",
         "shopType":"ostatní",
         "city":"Třešť",
         "zip":"589 01",
         "url":"/booking-form/_content_shops_x40001139-viki-spol-s-r-o.html",
         "phone":"567214153",
         "email":"viki.trest@iol.cz"
      },
      {
         "sapId":"40031490",
         "title":"Exasoft",
         "latlng":"49.671168,18.671763",
         "region":"moravskoslezsky",
         "openingHours":"Po-Pá: 9:00-18:00h, So: 9:00-12:00h, Ne: zavřeno",
         "streetWithNumber":"Lidická 544",
         "shopType":"ostatní",
         "city":"Třinec",
         "zip":"739 61",
         "url":"/booking-form/_content_shops_x40031490-exasoft.html",
         "phone":"773362018",
         "email":"trinec@exasoft.cz"
      },
      {
         "sapId":"1147",
         "title":"PLANEO Elektro Třinec",
         "latlng":"49.672566,18.659255",
         "region":"moravskoslezsky",
         "openingHours":"Po-Pá: 9-20h, So: 9-20h, Ne: 9-20h",
         "streetWithNumber":"Frýdecká 84 (vedle Tesca)",
         "shopType":"planeo",
         "city":"Třinec",
         "zip":"739 61",
         "url":"/booking-form/_content_shops_x1147-planeo-elektro-trinec.html",
         "phone":"553034160, 730182731",
         "email":"trinec@planeo.cz"
      },
      {
         "sapId":"1153",
         "title":"PLANEO Elektro Turnov",
         "latlng":"50.580488,15.155458",
         "region":"liberecky",
         "openingHours":"Po-Pá: 9-20h, So: 9-20h, Ne: 9-20h",
         "streetWithNumber":"Svobodova ul. 2248 (u Lidlu)",
         "shopType":"planeo",
         "city":"Turnov",
         "zip":"511 01",
         "url":"/booking-form/_content_shops_x1153-planeo-elektro-turnov.html",
         "phone":"483034174, 733628134",
         "email":"turnov@planeo.cz"
      },
      {
         "sapId":"40023566",
         "title":"Elektro Peterka",
         "latlng":"49.223901,14.419906",
         "region":"jihocesky",
         "openingHours":"Po-Pá: 8-17:30h, So: 8-11:30h, Ne: zavřeno",
         "streetWithNumber":"Horní Brašov 759 (OD Bety)",
         "shopType":"ostatní",
         "city":"Týn nad Vltavou",
         "zip":"375 01",
         "url":"/booking-form/_content_shops_x40023566-elektro-peterka.html",
         "phone":"385724097",
         "email":"info@electrocomfort.cz"
      },
      {
         "sapId":"40026783",
         "title":"VF Electric s.r.o.",
         "latlng":"49.881889,15.065602",
         "region":"stredocesky",
         "openingHours":"Po-Pá: 8-17h, So: 8-11:30h, Ne: zavřeno",
         "streetWithNumber":"Kolínská 892",
         "shopType":"ostatní",
         "city":"Uhlířské Janovice",
         "zip":"285 04",
         "url":"/booking-form/_content_shops_x40026783-vf-electric-s-r-o.html",
         "phone":"327544223",
         "email":"vfelectric@vfelectric.cz"
      },
      {
         "sapId":"40012757",
         "title":"Elektro Dostál",
         "latlng":"49.778591,17.117395",
         "region":"olomoucky",
         "openingHours":"Po-Pá: 8-17h, So: 8-12h, Ne: zavřeno",
         "streetWithNumber":"Nádražní 910",
         "shopType":"ostatní",
         "city":"Uničov",
         "zip":"783 91",
         "url":"/booking-form/_content_shops_x40012757-elektro-dostal.html",
         "phone":"585015555",
         "email":"elektro.unicov@dostal.cz"
      },
      {
         "sapId":"1122",
         "title":"PLANEO Elektro Ústí nad Labem",
         "latlng":"50.681080,14.007913",
         "region":"ustecky",
         "openingHours":"Po-Pá: 9-19h, So: 9-17h, Ne: 9-17h",
         "streetWithNumber":"Skorotická 2a/784 (na Rondelu)",
         "shopType":"planeo",
         "city":"Ústí nad Labem",
         "zip":"400 01",
         "url":"/booking-form/_content_shops_x1122-planeo-elektro-usti-nad-labem.html",
         "phone":"475208753, 724323011",
         "email":"usti@planeo.cz"
      },
      {
         "sapId":"40018402",
         "title":"Eurohity s.r.o.",
         "latlng":"49.148012,18.022498",
         "region":"zlinsky",
         "openingHours":"Po-Pá: 8:30-18h, So: 8:30-11:30h, Ne: zavřeno",
         "streetWithNumber":"Cyrilometodějská 1003",
         "shopType":"ostatní",
         "city":"Valašské Klobouky",
         "zip":"766 01",
         "url":"/booking-form/_content_shops_x40018402-eurohity-s-r-o.html",
         "phone":"603275007",
         "email":"klobouky@eurohity.cz"
      },
      {
         "sapId":"1105",
         "title":"PLANEO Elektro Valašské Meziříčí",
         "latlng":"49.484158,17.963982",
         "region":"zlinsky",
         "openingHours":"Po-Pá: 9-20h, So: 9-20h, Ne: 9-20h",
         "streetWithNumber":"Masarykova 878 (u Tesca)",
         "shopType":"planeo",
         "city":"Valašské Meziříčí",
         "zip":"757 01",
         "url":"/booking-form/_content_shops_x1105-planeo-elektro-valasske-mezirici.html",
         "phone":"572151916, 602665425",
         "email":"valasskemezirici@planeo.cz"
      },
      {
         "sapId":"40031900",
         "title":"Elektro Raus",
         "latlng":"49.355727,16.010615",
         "region":"vysocina",
         "openingHours":"Po-Pá: 9-17h, So: 9-12h, Ne: zavřeno",
         "streetWithNumber":"Radnická 31",
         "shopType":"ostatní",
         "city":"Velké Meziříčí",
         "zip":"594 01",
         "url":"/booking-form/_content_shops_x40031900-elektro-raus.html",
         "phone":"566523333",
         "email":"elektro.raus@noveradsl.cz"
      },
      {
         "sapId":"40027101",
         "title":"Sečkář - Kostelanský SK Elektro",
         "latlng":"48.949971,17.382534",
         "region":"jihomoravsky",
         "openingHours":"Po-Pá: 8-17h, So: 9-11h, Ne: zavřeno",
         "streetWithNumber":"Národních Mučedníků 937",
         "shopType":"ostatní",
         "city":"Veselí nad Moravou",
         "zip":"698 01",
         "url":"/booking-form/_content_shops_x40027101-seckar-kostelansky-sk-elektro.html",
         "phone":"608438969",
         "email":"skelektro@seznam.cz"
      },
      {
         "sapId":"40018404",
         "title":"Eurohity s.r.o.",
         "latlng":"48.950496,17.392783",
         "region":"jihomoravsky",
         "openingHours":"Po-Pá: 8-17:30h, So: 8-11h, Ne: zavřeno",
         "streetWithNumber":"Hutník 1505 (OD Famila)",
         "shopType":"ostatní",
         "city":"Veselí nad Moravou",
         "zip":"698 01",
         "url":"/booking-form/_content_shops_x40018404-eurohity-s-r-o.html",
         "phone":"605539935",
         "email":"veseli@eurohity.cz"
      },
      {
         "sapId":"40029896",
         "title":"Kadlec Elektro",
         "latlng":"49.057014,13.783172",
         "region":"jihocesky",
         "openingHours":"Po-Pá: 8:30-17h, So: 8-12h, Ne: zavřeno",
         "streetWithNumber":"K. Weise 502",
         "shopType":"ostatní",
         "city":"Vimperk",
         "zip":"385 01",
         "url":"/booking-form/_content_shops_x40029896-kadlec-elektro.html",
         "phone":"727 938 849, 388 319 444",
         "email":"vimperk@elektrokadlec.cz"
      },
      {
         "sapId":"40013006",
         "title":"Svoboda David - Elektromix",
         "latlng":"49.703658,14.897595",
         "region":"stredocesky",
         "openingHours":"Po-Pá: 8-17:30h, So: 8-11:30h, Ne: zavřeno",
         "streetWithNumber":"Lidická 301",
         "shopType":"ostatní",
         "city":"Vlašim",
         "zip":"258 01",
         "url":"/booking-form/_content_shops_x40013006-svoboda-david-elektromix.html",
         "phone":"317843032",
         "email":"elektromix@elektromix.cz"
      },
      {
         "sapId":"40005717",
         "title":"TERMO-CHLAD, Miloš Studnička",
         "latlng":"49.708360,14.899063",
         "region":"stredocesky",
         "openingHours":"Po-Pá: 8-12h, 13-17h, So: 8-11:30h, Ne: zavřeno",
         "streetWithNumber":"Poděbradova 228",
         "shopType":"ostatní",
         "city":"Vlašim",
         "zip":"258 01",
         "url":"/booking-form/_content_shops_x40005717-termo-chlad-milos-studnicka.html",
         "phone":"317845984",
         "email":"info@termo-chlad.cz"
      },
      {
         "sapId":"1162",
         "title":"PLANEO Elektro Vlašim",
         "latlng":"49.700820,14.903868",
         "region":"stredocesky",
         "openingHours":"Po-Pá: 9-20h, So: 9-20h, Ne: 9-20h",
         "streetWithNumber":"Okružní 1922 (naproti Tescu)",
         "shopType":"planeo",
         "city":"Vlašim",
         "zip":"258 01",
         "url":"/booking-form/_content_shops_x1162-planeo-elektro-vlasim.html",
         "phone":"313034277, 739380331",
         "email":"vlasim@planeo.cz"
      },
      {
         "sapId":"40019858",
         "title":"Elektro Villner",
         "latlng":"49.167138,13.889131",
         "region":"jihocesky",
         "openingHours":"Po-Pá: 8-17h, So: 8-12h, Ne: zavřeno",
         "streetWithNumber":"Palackého nám. 103",
         "shopType":"ostatní",
         "city":"Volyně",
         "zip":"387 01",
         "url":"/booking-form/_content_shops_x40019858-elektro-villner.html",
         "phone":"383372816, 777183618",
         "email":"info@elektrovillner.cz"
      },
      {
         "sapId":"30007886",
         "title":"DADKA Vracov s.r.o.",
         "latlng":"48.979914,17.219624",
         "region":"jihomoravsky",
         "openingHours":"Po-Pá: 8-17h, So: 8-11h, Ne: zavřeno",
         "streetWithNumber":"Náměstí Míru 206",
         "shopType":"ostatní",
         "city":"Vracov",
         "zip":"696 42",
         "url":"/booking-form/_content_shops_x30007886-dadka-vracov-s-r-o.html",
         "phone":"518629191",
         "email":"petr.dadka@tiscali.cz"
      },
      {
         "sapId":"40020537",
         "title":"Elektro Krupa Petr",
         "latlng":"50.120730,17.381987",
         "region":"moravskoslezsky",
         "openingHours":"Po-Pá: 8:30-12h, 14-17h, So: 8:30-11:30h, Ne: zavřeno",
         "streetWithNumber":"Jesenická 575",
         "shopType":"ostatní",
         "city":"Vrbno pod Pradědem",
         "zip":"793 26",
         "url":"/booking-form/_content_shops_x40020537-elektro-krupa-petr.html",
         "phone":"554751902",
         "email":"elektro.krupa@seznam.cz"
      },
      {
         "sapId":"40029401",
         "title":"ELEKTRO A KUCHYŇKA VRCHLABÍ",
         "latlng":"50.629132,15.607753",
         "region":"kralovehradecky",
         "openingHours":"Po-Pá: 9-12, 12:30-17:30h, So: 9-11:30, Ne: zavřeno",
         "streetWithNumber":"Náměstí Míru 219",
         "shopType":"ostatní",
         "city":"Vrchlabí",
         "zip":"543 01",
         "url":"/booking-form/_content_shops_x40029401-elektro-a-kuchynka-vrchlabi.html",
         "phone":"724337005",
         "email":"info@jilemnickaelektra.cz"
      },
      {
         "sapId":"1127",
         "title":"PLANEO Elektro Vyškov",
         "latlng":"49.273665,16.988962",
         "region":"jihomoravsky",
         "openingHours":"Po-Pá: 9-20h, So: 9-20h, Ne: 9-20h",
         "streetWithNumber":"U Jandovky 127/2 (u Alberta)",
         "shopType":"planeo",
         "city":"Vyškov",
         "zip":"682 01",
         "url":"/booking-form/_content_shops_x1127-planeo-elektro-vyskov.html",
         "phone":"517330151, 724532477",
         "email":"vyskov@planeo.cz"
      },
      {
         "sapId":"40010634",
         "title":"Elektro Kalous",
         "latlng":"49.882135,16.876434",
         "region":"olomoucky",
         "openingHours":"Po-Pá: 8-18h, So: 8-12h, Ne: zavřeno",
         "streetWithNumber":"náměstí Osvobození 261/7",
         "shopType":"ostatní",
         "city":"Zábřeh",
         "zip":"789 01",
         "url":"/booking-form/_content_shops_x40010634-elektro-kalous.html",
         "phone":"583411912",
         "email":"info@elektro-kalous.cz"
      },
      {
         "sapId":"1133",
         "title":"PLANEO Elektro Zlín",
         "latlng":"49.236737,17.686059",
         "region":"zlinsky",
         "openingHours":"Po-Pá: 9-20h, So: 9-20h, Ne: 9-20h",
         "streetWithNumber":"Sokolská 5300 (u Kauflandu)",
         "shopType":"planeo",
         "city":"Zlín",
         "zip":"760 01",
         "url":"/booking-form/_content_shops_x1133-planeo-elektro-zlin.html",
         "phone":"572151950, 733695386",
         "email":"zlin@planeo.cz"
      },
      {
         "sapId":"40011812",
         "title":"ExaSoft/H-Centrum elektro",
         "latlng":"49.207710,17.578115",
         "region":"zlinsky",
         "openingHours":"Po-Pá: 9-19h, So: 9-17h, Ne: 9-17h",
         "streetWithNumber":"Areál EXPO (HESPO) 1147",
         "shopType":"ostatní",
         "city":"Zlín",
         "zip":"763 02",
         "url":"/booking-form/_content_shops_x40011812-exasoft-h-centrum-elektro.html",
         "phone":"577103686",
         "email":"info@h-centrum.cz"
      },
      {
         "sapId":"1104",
         "title":"PLANEO Elektro Znojmo",
         "latlng":"48.855926,16.071197",
         "region":"jihomoravsky",
         "openingHours":"Po-Pá: 9-20h, \nSo: 9-20h, \nNe: 9-20h",
         "streetWithNumber":"Suchohrdelská 3675 (u Baumaxu)",
         "shopType":"planeo",
         "city":"Znojmo",
         "zip":"669 02",
         "url":"/booking-form/_content_shops_x1104-planeo-elektro-znojmo.html",
         "phone":"515220246, 734523258",
         "email":"znojmo@planeo.cz"
      },
      {
         "sapId":"40001666",
         "title":"EL Spektrum Jordán",
         "latlng":"50.087237,16.465892",
         "region":"pardubicky",
         "openingHours":"Po-Pá: 8-12h, 13-17h, So: 8-11:30h, Ne: zavřeno",
         "streetWithNumber":"Masarykovo nám. 172",
         "shopType":"ostatní",
         "city":"Žamberk",
         "zip":"564 01",
         "url":"/booking-form/_content_shops_x40001666-el-spektrum-jordan.html",
         "phone":"465614576",
         "email":"elspektrum@orlicko.cz"
      },
      {
         "sapId":"40000966",
         "title":"Průmyslové zboží - Duchoň Karel",
         "latlng":"50.330277,13.537374",
         "region":"ustecky",
         "openingHours":"Po-Pá: 8:30-12h, 13-17h, So: 8:30-11h, Ne: zavřeno",
         "streetWithNumber":"Podměstí 2125",
         "shopType":"ostatní",
         "city":"Žatec",
         "zip":"439 42",
         "url":"/booking-form/_content_shops_x40000966-prumyslove-zbozi-duchon-karel.html",
         "phone":"415727341",
         "email":"duchon@prumyslovezbozi.com"
      },
      {
         "sapId":"1106",
         "title":"PLANEO Elektro Žďár nad Sázavou",
         "latlng":"49.556230,15.949900",
         "region":"vysocina",
         "openingHours":"Po-Pá: 9-20h, So: 9-20h, Ne: 9-20h",
         "streetWithNumber":"Brněnská ulice 1144/28",
         "shopType":"planeo",
         "city":"Žďár nad Sázavou",
         "zip":"591 01",
         "url":"/booking-form/_content_shops_x1106-planeo-elektro-zdar-nad-sazavou.html",
         "phone":"561201062, 734423865",
         "email":"zdarnadsazavou@planeo.cz"
      },
      {
         "sapId":"40024613",
         "title":"GLOBAL Elektro",
         "latlng":"49.557367,15.936451",
         "region":"vysocina",
         "openingHours":"Po-Pá: 8:30-18h, So: 8:30-12h, Ne: zavřeno",
         "streetWithNumber":"Dvořákova 2459/6",
         "shopType":"ostatní",
         "city":"Žďár nad Sázavou",
         "zip":"591 01",
         "url":"/booking-form/_content_shops_x40024613-global-elektro.html",
         "phone":"566532090",
         "email":"obchod@global-elektro.cz"
      },
      {
         "sapId":"40029248",
         "title":"ELEKTRO-TEAM s.r.o",
         "latlng":"49.037866,16.617245",
         "region":"jihomoravsky",
         "openingHours":"Po-Pá: 8-11:30h, 12:30-17h, So: 8-11h, Ne: zavřeno",
         "streetWithNumber":"sídliště Družba 662",
         "shopType":"ostatní",
         "city":"Židlochovice",
         "zip":"667 01",
         "url":"/booking-form/_content_shops_x40029248-elektro-team-s-r-o.html",
         "phone":"547238902",
         "email":"frost.zidlochovice@email.cz"
      }
   ]
}
